Source Url,Lat,Long,Url,User,Id,Instant Book,Prix,Adresse,Logement,Lit,Propriete,Capacite Daccueil,Chambres,Etoiles,Name,Review,,
https://fr.airbnb.ca/s/Montr%C3%A9al--Canada?neighborhoods%5B%5D=Ahuntsic-Cartierville&page=3,45.5592519384279,-73.65815281332434,/rooms/8634937?s=SHbWSkCe,45403498,8634937,VRAI,55,"Ahuntsic-Cartierville, Laval",Logement entier,,Appartement,4,2,5.0,"Charmant 4 1/2, parking,metro, wifi",3 commentaires,,
https://fr.airbnb.ca/s/Montr%C3%A9al--Canada?neighborhoods%5B%5D=Ahuntsic-Cartierville&page=1,45.53678518277916,-73.67941464904618,/rooms/6399518?s=vs-JNGtt,33358769,6399518,FAUX,29,"Ahuntsic-Cartierville, Montréal",Chambre privée,,Appartement,5,1,5.0,"Clean,modern,typically Montreal",16 commentaires,,
https://fr.airbnb.ca/s/Montr%C3%A9al--Canada?neighborhoods%5B%5D=Ahuntsic-Cartierville&page=1,45.547971967046664,-73.68038060591537,/rooms/1717705?s=vs-JNGtt,6049121,1717705,FAUX,40,"Ahuntsic-Cartierville, Montréal",Logement entier,Vrai lit,Appartement,2,0,5.0,Le Bachelor: Pied-à-terre Montréal,41 commentaires,,
https://fr.airbnb.ca/s/Montr%C3%A9al--Canada?neighborhoods%5B%5D=Ahuntsic-Cartierville&page=1,45.56797853711829,-73.64543245842593,/rooms/2606913?s=vs-JNGtt,12588244,2606913,FAUX,35,"Ahuntsic-Cartierville, Montréal",Chambre privée,Vrai lit,Appartement,2,1,5.0,Calm and cozy room in Montreal,18 commentaires,,
https://fr.airbnb.ca/s/Montr%C3%A9al--Canada?neighborhoods%5B%5D=Ahuntsic-Cartierville&page=1,45.56707350713991,-73.65229131997836,/rooms/4813554?s=vs-JNGtt,24791257,4813554,FAUX,56,"Ahuntsic-Cartierville, Montréal",Logement entier,,Appartement,2,1,5/4/2015,Renovated 1 bedroom appartment,8 commentaires,,
https://fr.airbnb.ca/s/Montr%C3%A9al--Canada?neighborhoods%5B%5D=Ahuntsic-Cartierville&page=1,45.54021466020864,-73.64386434990999,/rooms/7780323?s=vs-JNGtt,40934895,7780323,VRAI,17,"Ahuntsic-Cartierville, Montréal",Chambre privée,,Appartement,4,1,5/4/2015,Grande chambre double privée,12 commentaires,,
https://fr.airbnb.ca/s/Montr%C3%A9al--Canada?neighborhoods%5B%5D=Ahuntsic-Cartierville&page=1,45.55777935532999,-73.66676142642835,/rooms/5152631?s=vs-JNGtt,3011738,5152631,FAUX,49,"Ahuntsic-Cartierville, Montréal",Chambre privée,Vrai lit,Maison,2,1,5/4/2015,Studio-chambre chaleureux - Métro,18 commentaires,,
https://fr.airbnb.ca/s/Montr%C3%A9al--Canada?neighborhoods%5B%5D=Ahuntsic-Cartierville&page=1,45.55804448325438,-73.6646520352696,/rooms/7349045?s=vs-JNGtt,3405068,7349045,VRAI,71,"Ahuntsic-Cartierville, Montréal",Logement entier,Vrai lit,Maison,2,1,5.0,La campagne en ville,8 commentaires,,
https://fr.airbnb.ca/s/Montr%C3%A9al--Canada?neighborhoods%5B%5D=Ahuntsic-Cartierville&page=1,45.541402243406466,-73.70299197812766,/rooms/5434295?s=vs-JNGtt,28190921,5434295,FAUX,43,"Ahuntsic-Cartierville, Montréal",Logement entier,Vrai lit,Appartement,2,0,5.0,Beau studio et quartier charmant,12 commentaires,,
https://fr.airbnb.ca/s/Montr%C3%A9al--Canada?neighborhoods%5B%5D=Ahuntsic-Cartierville&page=1,45.551677159617626,-73.65154980207583,/rooms/4747554?s=vs-JNGtt,6015004,4747554,FAUX,100,"Ahuntsic-Cartierville, Montréal",Logement entier,,Appartement,6,2,5/4/2015,Condo moderne près du métro,35 commentaires,,
https://fr.airbnb.ca/s/Montr%C3%A9al--Canada?neighborhoods%5B%5D=Ahuntsic-Cartierville&page=1,45.557704566340504,-73.66468474171003,/rooms/497335?s=vs-JNGtt,1750622,497335,FAUX,65,"Ahuntsic-Cartierville, Montréal",Logement entier,,Appartement,4,2,5.0,Montreal Fabulous Apt. II,38 commentaires,,
https://fr.airbnb.ca/s/Montr%C3%A9al--Canada?neighborhoods%5B%5D=Ahuntsic-Cartierville&page=1,45.56762952325407,-73.66109187061276,/rooms/4863426?s=vs-JNGtt,6990006,4863426,FAUX,120,"Ahuntsic-Cartierville, Montréal",Logement entier,,Appartement,6,2,5/4/2015,Grand et lumineux appartement,7 commentaires,,
https://fr.airbnb.ca/s/Montr%C3%A9al--Canada?neighborhoods%5B%5D=Ahuntsic-Cartierville&page=1,45.53020665476505,-73.71747276172884,/rooms/9329873?s=vs-JNGtt,48415508,9329873,VRAI,60,"Ahuntsic-Cartierville, Montréal",Logement entier,Vrai lit,Appartement,3,1,0,"Charmant condo 3 1/2, tout équipé",,,
https://fr.airbnb.ca/s/Montr%C3%A9al--Canada?neighborhoods%5B%5D=Ahuntsic-Cartierville&page=1,45.52380993334258,-73.70882138215133,/rooms/5346554?s=vs-JNGtt,27647006,5346554,FAUX,25,"Ahuntsic-Cartierville, Montréal",Chambre privée,Vrai lit,Appartement,2,1,5/4/2015,Nice and quiet bedroom!,5 commentaires,,
https://fr.airbnb.ca/s/Montr%C3%A9al--Canada?neighborhoods%5B%5D=Ahuntsic-Cartierville&page=1,45.559528266592245,-73.66241539906972,/rooms/4977588?s=vs-JNGtt,25656853,4977588,FAUX,40,"Ahuntsic-Cartierville, Montréal",Chambre privée,Vrai lit,Appartement,2,1,5.0,Jolie chambre dans quartier vivant,4 commentaires,,
https://fr.airbnb.ca/s/Montr%C3%A9al--Canada?neighborhoods%5B%5D=Ahuntsic-Cartierville&page=1,45.5516043794134,-73.6672130743078,/rooms/7469184?s=vs-JNGtt,3399617,7469184,FAUX,51,"Ahuntsic-Cartierville, Montréal",Logement entier,,Appartement,4,1,5.0,Super convenient studio in Montreal,19 commentaires,,
https://fr.airbnb.ca/s/Montr%C3%A9al--Canada?neighborhoods%5B%5D=Ahuntsic-Cartierville&page=1,45.551591256323185,-73.65297810376997,/rooms/2431115?s=vs-JNGtt,1313899,2431115,FAUX,71,"Ahuntsic-Cartierville, Montréal",Logement entier,,Loft,3,0,5.0,Grand studio à deux pas du métro,38 commentaires,,
https://fr.airbnb.ca/s/Montr%C3%A9al--Canada?neighborhoods%5B%5D=Ahuntsic-Cartierville&page=1,45.57294510506309,-73.66196767064508,/rooms/9324861?s=vs-JNGtt,40023942,9324861,VRAI,39,"Ahuntsic-Cartierville, Montréal",Chambre privée,Vrai lit,Maison,2,1,0,BELLE CHAMBRE À LOUER,,,
https://fr.airbnb.ca/s/Montr%C3%A9al--Canada?neighborhoods%5B%5D=Ahuntsic-Cartierville&page=1,45.5418420408864,-73.66262166923211,/rooms/9295993?s=vs-JNGtt,5636900,9295993,FAUX,59,"Ahuntsic-Cartierville, Montréal",Chambre privée,Vrai lit,Appartement,1,1,0,a place to stay in in montreal,,,
https://fr.airbnb.ca/s/Montr%C3%A9al--Canada?neighborhoods%5B%5D=Ahuntsic-Cartierville&page=2,45.54582752197059,-73.66259500919166,/rooms/8271413?s=2mqA004z,7663825,8271413,FAUX,110,"Ahuntsic-Cartierville, Montréal",Chambre privée,Vrai lit,Maison de ville,1,1,0,Chambre a louer Montreal Ahuntsic,,,
https://fr.airbnb.ca/s/Montr%C3%A9al--Canada?neighborhoods%5B%5D=Ahuntsic-Cartierville&page=2,45.540781138496314,-73.64412893596514,/rooms/9260122?s=2mqA004z,48104552,9260122,FAUX,15,"Ahuntsic-Cartierville, Montréal",Chambre privée,Vrai lit,Appartement,1,1,0,Grand 5 1/2 sur 2 étages,,,
https://fr.airbnb.ca/s/Montr%C3%A9al--Canada?neighborhoods%5B%5D=Ahuntsic-Cartierville&page=2,45.56509660382796,-73.66322287808977,/rooms/6074817?s=2mqA004z,29497060,6074817,FAUX,84,"Ahuntsic-Cartierville, Montréal",Logement entier,,Appartement,4,1,0,"Charmant appartement, bord de l'eau",1 commentaire,,
https://fr.airbnb.ca/s/Montr%C3%A9al--Canada?neighborhoods%5B%5D=Ahuntsic-Cartierville&page=2,45.554350478921194,-73.6429545098122,/rooms/6312023?s=2mqA004z,32836210,6312023,FAUX,51,"Ahuntsic-Cartierville, Montréal",Logement entier,Vrai lit,Appartement,2,1,4.0,Superbe appartement Ahuntsic,4 commentaires,,
https://fr.airbnb.ca/s/Montr%C3%A9al--Canada?neighborhoods%5B%5D=Ahuntsic-Cartierville&page=2,45.576104563408705,-73.64030907849009,/rooms/4347575?s=2mqA004z,22568628,4347575,FAUX,60,"Ahuntsic-Cartierville, Montréal",Logement entier,,Appartement,2,1,4.0,"Confort, Tranquilite d'esprit",7 commentaires,,
https://fr.airbnb.ca/s/Montr%C3%A9al--Canada?neighborhoods%5B%5D=Ahuntsic-Cartierville&page=2,45.548029530468305,-73.67181982279965,/rooms/9257586?s=2mqA004z,4043927,9257586,FAUX,51,"Ahuntsic-Cartierville, Montréal",Logement entier,,Appartement,4,2,0,Appartement près du métro,,,
https://fr.airbnb.ca/s/Montr%C3%A9al--Canada?neighborhoods%5B%5D=Ahuntsic-Cartierville&page=2,45.54501853232114,-73.64224136207135,/rooms/6778964?s=2mqA004z,2371968,6778964,FAUX,79,"Ahuntsic-Cartierville, Montréal",Logement entier,Vrai lit,Appartement,2,1,5.0,Peaceful apartement in Montreal,3 commentaires,,
https://fr.airbnb.ca/s/Montr%C3%A9al--Canada?neighborhoods%5B%5D=Ahuntsic-Cartierville&page=2,45.54819901177008,-73.6409401369739,/rooms/8480452?s=2mqA004z,44629285,8480452,VRAI,91,"Ahuntsic-Cartierville, Montréal",Logement entier,,Maison de ville,6,2,0,Apartment on two floors Near Subway,,,
https://fr.airbnb.ca/s/Montr%C3%A9al--Canada?neighborhoods%5B%5D=Ahuntsic-Cartierville&page=2,45.54781962326742,-73.66785043291874,/rooms/8947919?s=2mqA004z,46770423,8947919,FAUX,43,"Ahuntsic-Cartierville, Montréal",Logement entier,Vrai lit,Appartement,3,1,0,Beau bachelor tout inclus!,,,
https://fr.airbnb.ca/s/Montr%C3%A9al--Canada?neighborhoods%5B%5D=Ahuntsic-Cartierville&page=2,45.55061858973503,-73.66430101466666,/rooms/728677?s=2mqA004z,3781413,728677,VRAI,125,"Ahuntsic-Cartierville, Montréal",Logement entier,,Maison,8,4,5.0,Grande maison à Montréal près métro,3 commentaires,,
https://fr.airbnb.ca/s/Montr%C3%A9al--Canada?neighborhoods%5B%5D=Ahuntsic-Cartierville&page=2,45.54311433199164,-73.69524409894602,/rooms/8986279?s=2mqA004z,46667459,8986279,FAUX,40,"Ahuntsic-Cartierville, Montréal",Chambre privée,Vrai lit,Appartement,2,1,0,Le cycliste,,,
https://fr.airbnb.ca/s/Montr%C3%A9al--Canada?neighborhoods%5B%5D=Ahuntsic-Cartierville&page=2,45.56454013108095,-73.6576914679851,/rooms/7111086?s=2mqA004z,27731319,7111086,VRAI,51,"Ahuntsic-Cartierville, Montréal",Logement entier,Vrai lit,Appartement,3,1,5.0,Appartement confortable à Ahuntsic,7 commentaires,,
https://fr.airbnb.ca/s/Montr%C3%A9al--Canada?neighborhoods%5B%5D=Ahuntsic-Cartierville&page=2,45.54664071511397,-73.64148470502437,/rooms/6493792?s=2mqA004z,21760037,6493792,FAUX,95,"Ahuntsic-Cartierville, Montréal",Logement entier,,Maison,3,1,5.0,Au jardin d'hortensias,6 commentaires,,
https://fr.airbnb.ca/s/Montr%C3%A9al--Canada?neighborhoods%5B%5D=Ahuntsic-Cartierville&page=2,45.53840698743503,-73.67196032736769,/rooms/8884263?s=2mqA004z,46487295,8884263,FAUX,45,"Ahuntsic-Cartierville, Montréal",Logement entier,,Appartement,4,2,0,Superbe 4 1/2 + Mezzanine,,,
https://fr.airbnb.ca/s/Montr%C3%A9al--Canada?neighborhoods%5B%5D=Ahuntsic-Cartierville&page=2,45.5525077159038,-73.64979069696739,/rooms/6935162?s=2mqA004z,20823608,6935162,VRAI,45,"Ahuntsic-Cartierville, Montréal",Logement entier,,Appartement,2,1,0,Hızel,1 commentaire,,
https://fr.airbnb.ca/s/Montr%C3%A9al--Canada?neighborhoods%5B%5D=Ahuntsic-Cartierville&page=2,45.551133226880204,-73.63120656655705,/rooms/5863283?s=2mqA004z,593336,5863283,FAUX,85,"Ahuntsic-Cartierville, Montréal",Chambre privée,Vrai lit,Appartement,2,1,0,Sunny room in Montreal,,,
https://fr.airbnb.ca/s/Montr%C3%A9al--Canada?neighborhoods%5B%5D=Ahuntsic-Cartierville&page=2,45.5581450201015,-73.6647419476153,/rooms/4375393?s=2mqA004z,14698253,4375393,FAUX,75,"Ahuntsic-Cartierville, Montréal",Chambre privée,Vrai lit,Appartement,2,1,0,Belle chambre quartier calme,,,
https://fr.airbnb.ca/s/Montr%C3%A9al--Canada?neighborhoods%5B%5D=Ahuntsic-Cartierville&page=2,45.56866366495355,-73.64564640284847,/rooms/9331443?s=2mqA004z,48428470,9331443,FAUX,200,"Ahuntsic-Cartierville, Montréal",Logement entier,,Maison,8,7,0,Grand logement à Ahuntsic,,,
https://fr.airbnb.ca/s/Montr%C3%A9al--Canada?neighborhoods%5B%5D=Ahuntsic-Cartierville&page=3,45.55066879270795,-73.63679624372891,/rooms/9134482?s=SHbWSkCe,47574952,9134482,VRAI,25,"Ahuntsic-Cartierville, Montréal",Chambre privée,Vrai lit,Appartement,1,1,0,One room in a College Residence,,,
https://fr.airbnb.ca/s/Montr%C3%A9al--Canada?neighborhoods%5B%5D=Ahuntsic-Cartierville&page=3,45.55780865211142,-73.66147465099135,/rooms/7770532?s=SHbWSkCe,27745525,7770532,FAUX,35,"Ahuntsic-Cartierville, Montréal",Chambre privée,Vrai lit,Maison,2,1,0,"Maison, jardin en ville !",,,
https://fr.airbnb.ca/s/Montr%C3%A9al--Canada?neighborhoods%5B%5D=Ahuntsic-Cartierville&page=3,45.55074915620988,-73.64332869802102,/rooms/9434497?s=SHbWSkCe,7826853,9434497,FAUX,40,"Ahuntsic-Cartierville, Montréal",Logement entier,Vrai lit,Appartement,2,1,0,Very nice appartment,,,
https://fr.airbnb.ca/s/Montr%C3%A9al--Canada?neighborhoods%5B%5D=Ahuntsic-Cartierville&page=3,45.56080626601804,-73.66900236874139,/rooms/444529?s=SHbWSkCe,1750622,444529,VRAI,64,"Ahuntsic-Cartierville, Montréal",Logement entier,,Appartement,4,2,5.0,Montreal Fabulous Apt.,98 commentaires,,
https://fr.airbnb.ca/s/Montr%C3%A9al--Canada?neighborhoods%5B%5D=Ahuntsic-Cartierville&page=3,45.54468575467197,-73.69516561398119,/rooms/3827590?s=SHbWSkCe,19695765,3827590,FAUX,67,"Ahuntsic-Cartierville, Montréal",Logement entier,Vrai lit,Maison,2,1,5.0,Charmant studio près de la rivière,13 commentaires,,
https://fr.airbnb.ca/s/Montr%C3%A9al--Canada?neighborhoods%5B%5D=Ahuntsic-Cartierville&page=3,45.54571416946724,-73.64161300125708,/rooms/5825280?s=SHbWSkCe,3588338,5825280,FAUX,40,"Ahuntsic-Cartierville, Montréal",Chambre partagée,Canapé-lit,Appartement,2,1,0,You are Welcome in Montreal !,,,
https://fr.airbnb.ca/s/Montr%C3%A9al--Canada?neighborhoods%5B%5D=Ahuntsic-Cartierville&page=3,45.559509917675086,-73.66415981917406,/rooms/3857187?s=SHbWSkCe,18232069,3857187,FAUX,45,"Ahuntsic-Cartierville, Montréal",Chambre privée,Vrai lit,Appartement,3,1,0,Chambre double Montréal - 2 étages,1 commentaire,,
https://fr.airbnb.ca/s/Montr%C3%A9al--Canada?neighborhoods%5B%5D=Ahuntsic-Cartierville&page=3,45.52543481169594,-73.71279084555357,/rooms/8407095?s=SHbWSkCe,42643480,8407095,FAUX,55,"Ahuntsic-Cartierville, Montréal",Chambre privée,Vrai lit,Appartement,2,1,0,2 bedroom appartment,,,
https://fr.airbnb.ca/s/Montr%C3%A9al--Canada?neighborhoods%5B%5D=Ahuntsic-Cartierville&page=3,45.53011963108163,-73.681635264936,/rooms/788687?s=SHbWSkCe,4156658,788687,FAUX,99,"Ahuntsic-Cartierville, Montréal",Logement entier,Vrai lit,Appartement,2,1,5.0,Parfait condo/parking intérieur,20 commentaires,,
https://fr.airbnb.ca/s/Montr%C3%A9al--Canada?neighborhoods%5B%5D=Ahuntsic-Cartierville&page=3,45.56512373322526,-73.66382542254708,/rooms/8213660?s=SHbWSkCe,3301739,8213660,FAUX,28,"Ahuntsic-Cartierville, Montréal",Chambre privée,Vrai lit,Appartement,1,1,0,Nice bedroom near river,,,
https://fr.airbnb.ca/s/Montr%C3%A9al--Canada?neighborhoods%5B%5D=Ahuntsic-Cartierville&page=3,45.57479194755578,-73.65836157656406,/rooms/9184698?s=SHbWSkCe,45516209,9184698,FAUX,63,"Ahuntsic-Cartierville, Montréal",Logement entier,,Appartement,4,1,0,Petit appartement charmant,,,
https://fr.airbnb.ca/s/Montr%C3%A9al--Canada?neighborhoods%5B%5D=Ahuntsic-Cartierville&page=3,45.53598721768846,-73.69409137915149,/rooms/8001457?s=SHbWSkCe,39955207,8001457,FAUX,45,"Ahuntsic-Cartierville, Montréal",Logement entier,Vrai lit,Appartement,2,1,0,grand 2.5 a sous-louer pour 2 mois,,,
https://fr.airbnb.ca/s/Montr%C3%A9al--Canada?neighborhoods%5B%5D=Ahuntsic-Cartierville&page=3,45.54665669341026,-73.67346630877904,/rooms/6162989?s=SHbWSkCe,31972063,6162989,FAUX,45,"Ahuntsic-Cartierville, Montréal",Chambre privée,Vrai lit,Appartement,2,1,0,Grande et lumineuse chambre,,,
https://fr.airbnb.ca/s/Montr%C3%A9al--Canada?neighborhoods%5B%5D=Ahuntsic-Cartierville&page=3,45.560672862032,-73.66785724559257,/rooms/6092066?s=SHbWSkCe,31615696,6092066,FAUX,80,"Ahuntsic-Cartierville, Montréal",Chambre privée,Canapé-lit,Appartement,2,1,0,Nice and well maintained apartment,,,
https://fr.airbnb.ca/s/Montr%C3%A9al--Canada?neighborhoods%5B%5D=Ahuntsic-Cartierville&page=3,45.55200603776582,-73.62998044480636,/rooms/5434485?s=SHbWSkCe,25058470,5434485,FAUX,111,"Ahuntsic-Cartierville, Montréal",Logement entier,Vrai lit,Appartement en résidence,2,1,0,The home to Stay,,,
https://fr.airbnb.ca/s/Montr%C3%A9al--Canada?neighborhoods%5B%5D=Ahuntsic-Cartierville&page=3,45.546083416469024,-73.6395087838413,/rooms/9097971?s=SHbWSkCe,47433595,9097971,VRAI,24,"Ahuntsic-Cartierville, Montréal",Chambre privée,Vrai lit,Appartement,1,1,0,Cozy room in sunny Villeray!,,,
https://fr.airbnb.ca/s/Montr%C3%A9al--Canada?neighborhoods%5B%5D=Ahuntsic-Cartierville&page=3,45.545210651457516,-73.64202793286269,/rooms/1889358?s=SHbWSkCe,9825744,1889358,FAUX,51,"Ahuntsic-Cartierville, Montréal",Logement entier,Vrai lit,Appartement,2,3,0,Très beau et spacieux 3 1/2 !,2 commentaires,,
https://fr.airbnb.ca/s/Montr%C3%A9al--Canada?neighborhoods%5B%5D=Ahuntsic-Cartierville&page=4,45.52912394192952,-73.72535000764472,/rooms/8664457?s=Pz6AK4Mr,38964529,8664457,FAUX,25,"Ahuntsic-Cartierville, Montréal",Chambre privée,Vrai lit,Appartement,1,1,0,Suburb getaway,,,
https://fr.airbnb.ca/s/Montr%C3%A9al--Canada?neighborhoods%5B%5D=Ahuntsic-Cartierville&page=4,45.545643266197644,-73.64172524926659,/rooms/7051401?s=Pz6AK4Mr,18768465,7051401,VRAI,35,"Ahuntsic-Cartierville, Montréal",Chambre privée,Vrai lit,Appartement,2,1,0,Chambre privée - 300m du métro,,,
https://fr.airbnb.ca/s/Montr%C3%A9al--Canada?neighborhoods%5B%5D=Ahuntsic-Cartierville&page=4,45.54585119388785,-73.67702249971785,/rooms/8454794?s=Pz6AK4Mr,41833884,8454794,VRAI,51,"Ahuntsic-Cartierville, Montréal",Chambre privée,Vrai lit,Appartement,4,1,0,Superbe Appartement,,,
https://fr.airbnb.ca/s/Montr%C3%A9al--Canada?neighborhoods%5B%5D=Ahuntsic-Cartierville&page=4,45.54500192762006,-73.66265314029881,/rooms/8761005?s=Pz6AK4Mr,45066950,8761005,FAUX,75,"Ahuntsic-Cartierville, Montréal",Chambre privée,Vrai lit,Maison de ville,2,1,0,Chambre rue St-Urbain,,,
https://fr.airbnb.ca/s/Montr%C3%A9al--Canada?neighborhoods%5B%5D=Ahuntsic-Cartierville&page=4,45.544241866844914,-73.64211802986486,/rooms/8644483?s=Pz6AK4Mr,45440378,8644483,FAUX,35,"Ahuntsic-Cartierville, Montréal",Chambre privée,Vrai lit,Appartement,2,1,0,Grande chambre Ahuntsic Montréal,,,
https://fr.airbnb.ca/s/Montr%C3%A9al--Canada?neighborhoods%5B%5D=Ahuntsic-Cartierville&page=4,45.55179819847075,-73.66043859720658,/rooms/7176193?s=Pz6AK4Mr,37590127,7176193,VRAI,33,"Ahuntsic-Cartierville, Montréal",Chambre privée,Vrai lit,Maison,1,1,5.0,Room in family house,4 commentaires,,
https://fr.airbnb.ca/s/Montr%C3%A9al--Canada?neighborhoods%5B%5D=Ahuntsic-Cartierville&page=4,45.566708758912604,-73.66028793499738,/rooms/4163381?s=Pz6AK4Mr,730586,4163381,FAUX,80,"Ahuntsic-Cartierville, Montréal",Logement entier,Vrai lit,Appartement,4,1,0,Le Cocon d'Ahuntsic,,,
https://fr.airbnb.ca/s/Montr%C3%A9al--Canada?neighborhoods%5B%5D=Ahuntsic-Cartierville&page=4,45.55112641672802,-73.65912894223636,/rooms/8554343?s=Pz6AK4Mr,44877718,8554343,FAUX,165,"Ahuntsic-Cartierville, Montréal",Chambre privée,,Maison de ville,5,1,0,Berri House,,,
https://fr.airbnb.ca/s/Montr%C3%A9al--Canada?neighborhoods%5B%5D=Ahuntsic-Cartierville&page=4,45.56020921928642,-73.65203966782713,/rooms/5929003?s=Pz6AK4Mr,19070395,5929003,FAUX,143,"Ahuntsic-Cartierville, Montréal",Logement entier,,Maison,4,3,0,Jolie maison proche de tout,,,
https://fr.airbnb.ca/s/Montr%C3%A9al--Canada?neighborhoods%5B%5D=Ahuntsic-Cartierville&page=4,45.56905724300625,-73.6607563235008,/rooms/9206623?s=Pz6AK4Mr,47884474,9206623,FAUX,67,"Ahuntsic-Cartierville, Montréal",Logement entier,Vrai lit,Appartement,2,1,0,Appartement 3 et demi Ahunstic,,,
https://fr.airbnb.ca/s/Montr%C3%A9al--Canada?neighborhoods%5B%5D=Ahuntsic-Cartierville&page=4,45.533300697032466,-73.72352356464664,/rooms/8987403?s=Pz6AK4Mr,10085483,8987403,FAUX,274,"Ahuntsic-Cartierville, Montréal",Logement entier,,Appartement,6,2,0,Très bel appartement à Montréal,,,
https://fr.airbnb.ca/s/Montr%C3%A9al--Canada?neighborhoods%5B%5D=Ahuntsic-Cartierville&page=4,45.55323234300278,-73.66060289795993,/rooms/7665131?s=Pz6AK4Mr,37590127,7665131,VRAI,33,"Ahuntsic-Cartierville, Montréal",Chambre privée,Vrai lit,Maison,1,1,0,Room in family house,,,
https://fr.airbnb.ca/s/Montr%C3%A9al--Canada?neighborhoods%5B%5D=Ahuntsic-Cartierville&page=4,45.54988726741629,-73.67323109166254,/rooms/2188421?s=Pz6AK4Mr,5994859,2188421,VRAI,87,"Ahuntsic-Cartierville, Montréal",Logement entier,,Appartement,4,2,5/4/2015,"Appart. chic meublé,4 et demi, 2 ch",30 commentaires,,
https://fr.airbnb.ca/s/Montr%C3%A9al--Canada?neighborhoods%5B%5D=Ahuntsic-Cartierville&page=4,45.57070674794792,-73.64828635053622,/rooms/6371584?s=Pz6AK4Mr,19683965,6371584,FAUX,95,"Ahuntsic-Cartierville, Montréal",Logement entier,,Appartement,4,2,5.0,Secteur tranquile de Montreal,6 commentaires,,
https://fr.airbnb.ca/s/Montr%C3%A9al--Canada?neighborhoods%5B%5D=Ahuntsic-Cartierville&page=4,45.56111055168684,-73.65618124767457,/rooms/1073620?s=Pz6AK4Mr,2837376,1073620,VRAI,100,"Ahuntsic-Cartierville, Montréal",Logement entier,,Maison,8,5,0,Live in a sector near everything,2 commentaires,,
https://fr.airbnb.ca/s/Montr%C3%A9al--Canada?neighborhoods%5B%5D=Ahuntsic-Cartierville&page=4,45.548914506581085,-73.63782383340684,/rooms/5337683?s=Pz6AK4Mr,27662840,5337683,FAUX,71,"Ahuntsic-Cartierville, Montréal",Logement entier,,Appartement,2,2,0,"Spacieux, tranquille & abordable",,,
https://fr.airbnb.ca/s/Montr%C3%A9al--Canada?neighborhoods%5B%5D=Ahuntsic-Cartierville&page=4,45.56077811736587,-73.66287343463293,/rooms/2546222?s=Pz6AK4Mr,12858048,2546222,FAUX,45,"Ahuntsic-Cartierville, Montréal",Logement entier,Vrai lit,Appartement,2,0,5.0,Studio avec accès au jardin !,20 commentaires,,
https://fr.airbnb.ca/s/Montr%C3%A9al--Canada?neighborhoods%5B%5D=Ahuntsic-Cartierville&page=4,45.54785915461637,-73.64451625997779,/rooms/6819663?s=Pz6AK4Mr,35711563,6819663,FAUX,80,"Ahuntsic-Cartierville, Montréal",Logement entier,,Appartement,4,2,5.0,La campagne en ville!!,5 commentaires,,
https://fr.airbnb.ca/s/Montr%C3%A9al--Canada?neighborhoods%5B%5D=Ahuntsic-Cartierville&page=5,45.53534468690383,-73.7201874230307,/rooms/8368154?s=i1nwyZZK,44101447,8368154,FAUX,77,"Ahuntsic-Cartierville, Montréal",Logement entier,,Appartement,6,2,5/4/2015,FULL&BIG 4 1/2 APT + VERANDA!,7 commentaires,,
https://fr.airbnb.ca/s/Montr%C3%A9al--Canada?neighborhoods%5B%5D=Ahuntsic-Cartierville&page=5,45.54483347766797,-73.69921773129323,/rooms/7919078?s=i1nwyZZK,41757634,7919078,FAUX,31,"Ahuntsic-Cartierville, Montréal",Chambre privée,Canapé-lit,Maison,2,1,0,Chambre dans une coquette maison,2 commentaires,,
https://fr.airbnb.ca/s/Montr%C3%A9al--Canada?neighborhoods%5B%5D=Ahuntsic-Cartierville&page=5,45.55895324278572,-73.65080352479123,/rooms/8126731?s=i1nwyZZK,9941099,8126731,FAUX,39,"Ahuntsic-Cartierville, Montréal",Logement entier,Vrai lit,Appartement,2,0,5.0,studio chaleureux old-fashioned,7 commentaires,,
https://fr.airbnb.ca/s/Montr%C3%A9al--Canada?neighborhoods%5B%5D=Ahuntsic-Cartierville&page=5,45.562993255147425,-73.64826308079363,/rooms/3584358?s=i1nwyZZK,18056013,3584358,FAUX,51,"Ahuntsic-Cartierville, Montréal",Chambre privée,Vrai lit,Appartement,1,1,0,Furnished appartment to share:),,,
https://fr.airbnb.ca/s/Montr%C3%A9al--Canada?neighborhoods%5B%5D=Ahuntsic-Cartierville&page=5,45.55300048024849,-73.62839084241742,/rooms/3916343?s=i1nwyZZK,14297323,3916343,FAUX,89,"Ahuntsic-Cartierville, Montréal",Logement entier,Vrai lit,Appartement,2,1,5/4/2015,Superb luminous condo on 2 floors,14 commentaires,,
https://fr.airbnb.ca/s/Montr%C3%A9al--Canada?neighborhoods%5B%5D=Ahuntsic-Cartierville&page=5,45.52595608248648,-73.73489684975208,/rooms/5760290?s=i1nwyZZK,29883323,5760290,FAUX,1395,"Ahuntsic-Cartierville, Montréal",Logement entier,,Maison,15,8,5/4/2015,Amazing 8BR Suites Waterview House,3 commentaires,,
https://fr.airbnb.ca/s/Montr%C3%A9al--Canada?neighborhoods%5B%5D=Ahuntsic-Cartierville&page=5,45.53502237045175,-73.7109924584537,/rooms/5114835?s=i1nwyZZK,26428903,5114835,FAUX,31,"Ahuntsic-Cartierville, Montréal",Chambre privée,Vrai lit,Maison,2,1,0,Furnished room equipped Salaberry,,,
https://fr.airbnb.ca/s/Montr%C3%A9al--Canada?neighborhoods%5B%5D=Ahuntsic-Cartierville&page=5,45.556251556983426,-73.66109668061965,/rooms/7434450?s=i1nwyZZK,3830576,7434450,FAUX,51,"Ahuntsic-Cartierville, Montréal",Chambre privée,Vrai lit,Appartement,2,1,5.0,jolie chambre en face du parc,4 commentaires,,
https://fr.airbnb.ca/s/Montr%C3%A9al--Canada?neighborhoods%5B%5D=Ahuntsic-Cartierville&page=5,45.54559619503905,-73.64242522884224,/rooms/4172425?s=i1nwyZZK,8858952,4172425,FAUX,40,"Ahuntsic-Cartierville, Montréal",Chambre privée,,Appartement,2,1,5.0,Bon choix!,3 commentaires,,
https://fr.airbnb.ca/s/Montr%C3%A9al--Canada?neighborhoods%5B%5D=Ahuntsic-Cartierville&page=5,45.54789366569048,-73.64613545799745,/rooms/7528164?s=i1nwyZZK,39451173,7528164,FAUX,31,"Ahuntsic-Cartierville, Montréal",Chambre privée,Vrai lit,Appartement,2,1,5/4/2015,Chambre double Métro crémazie,3 commentaires,,
https://fr.airbnb.ca/s/Montr%C3%A9al--Canada?neighborhoods%5B%5D=Ahuntsic-Cartierville&page=5,45.56438099707653,-73.65577199573342,/rooms/8995207?s=i1nwyZZK,46985604,8995207,VRAI,60,"Ahuntsic-Cartierville, Montréal",Logement entier,Vrai lit,Appartement,2,1,0,Beau et grand appartement Montréal,1 commentaire,,
https://fr.airbnb.ca/s/Montr%C3%A9al--Canada?neighborhoods%5B%5D=Ahuntsic-Cartierville&page=5,45.567346068900115,-73.65762299031815,/rooms/8268284?s=i1nwyZZK,24230724,8268284,FAUX,125,"Ahuntsic-Cartierville, Montréal",Logement entier,Vrai lit,Appartement,2,1,0,"Magnifique 4 1/2, moderne avec cour",,,
https://fr.airbnb.ca/s/Montr%C3%A9al--Canada?neighborhoods%5B%5D=Ahuntsic-Cartierville&page=5,45.539249878274816,-73.69978271661496,/rooms/8306391?s=i1nwyZZK,43793912,8306391,VRAI,62,"Ahuntsic-Cartierville, Montréal",Logement entier,,Appartement,4,1,0,Très grand 31/2 quartier tranquille,,,
https://fr.airbnb.ca/s/Montr%C3%A9al--Canada?neighborhoods%5B%5D=Ahuntsic-Cartierville&page=5,45.53587826575588,-73.66915345316797,/rooms/4964397?s=i1nwyZZK,20473294,4964397,FAUX,65,"Ahuntsic-Cartierville, Montréal",Logement entier,Vrai lit,Appartement,4,1,0,Pied à Montréal tout équipé!,2 commentaires,,
https://fr.airbnb.ca/s/Montr%C3%A9al--Canada?neighborhoods%5B%5D=Ahuntsic-Cartierville&page=5,45.548484867411155,-73.67118484513618,/rooms/5790883?s=i1nwyZZK,5693815,5790883,FAUX,45,"Ahuntsic-Cartierville, Montréal",Logement entier,Canapé-lit,Appartement,2,1,5/4/2015,Charmant studio avec sdb privée,3 commentaires,,
https://fr.airbnb.ca/s/Montr%C3%A9al--Canada?neighborhoods%5B%5D=Ahuntsic-Cartierville&page=5,45.53159413641,-73.68118321389741,/rooms/5379211?s=i1nwyZZK,27884227,5379211,FAUX,75,"Ahuntsic-Cartierville, Montréal",Logement entier,Vrai lit,Appartement,2,1,0,Condo neuf près des voies rapides,1 commentaire,,
https://fr.airbnb.ca/s/Montr%C3%A9al--Canada?neighborhoods%5B%5D=Ahuntsic-Cartierville&page=5,45.557546260319974,-73.65786155106622,/rooms/6838733?s=i1nwyZZK,35660074,6838733,FAUX,88,"Ahuntsic-Cartierville, Montréal",Logement entier,,Appartement,4,2,0,4 1/2près métro Sauvé/parc Ahuntsic,2 commentaires,,
https://fr.airbnb.ca/s/Montr%C3%A9al--Canada?neighborhoods%5B%5D=Ahuntsic-Cartierville&page=5,45.559746666062786,-73.67032152436833,/rooms/4325101?s=i1nwyZZK,22161172,4325101,FAUX,60,"Ahuntsic-Cartierville, Montréal",Chambre privée,Vrai lit,Maison,2,1,0,Belle maison ds un quartier calme,,,
https://fr.airbnb.ca/s/Montr%C3%A9al--Canada?neighborhoods%5B%5D=Ahuntsic-Cartierville&page=6,45.552849565276844,-73.62759929549479,/rooms/520785?s=igZwW-sq,2562126,520785,FAUX,79,"Ahuntsic-Cartierville, Montréal",Logement entier,,Appartement en résidence,3,1,0,Newly renovated Condo in Mtl,,,
https://fr.airbnb.ca/s/Montr%C3%A9al--Canada?neighborhoods%5B%5D=Ahuntsic-Cartierville&page=6,45.55472929624392,-73.66534956310218,/rooms/6590617?s=igZwW-sq,34482763,6590617,FAUX,120,"Ahuntsic-Cartierville, Montréal",Logement entier,,Appartement,6,3,0,Appart Montréalais chaleureux,2 commentaires,,
https://fr.airbnb.ca/s/Montr%C3%A9al--Canada?neighborhoods%5B%5D=Ahuntsic-Cartierville&page=6,45.569532428117434,-73.64912788842912,/rooms/5849362?s=igZwW-sq,30370491,5849362,VRAI,45,"Ahuntsic-Cartierville, Montréal",Logement entier,Vrai lit,Appartement,4,1,5.0,Appartement 3 1/2 très propre,9 commentaires,,
https://fr.airbnb.ca/s/Montr%C3%A9al--Canada?neighborhoods%5B%5D=Ahuntsic-Cartierville&page=6,45.577668530920214,-73.65304613794481,/rooms/8111088?s=igZwW-sq,40996950,8111088,FAUX,39,"Ahuntsic-Cartierville, Montréal",Chambre privée,Vrai lit,Maison,2,1,0,"Chambre \cosy\""""",,,
https://fr.airbnb.ca/s/Montr%C3%A9al--Canada?neighborhoods%5B%5D=Ahuntsic-Cartierville&page=6,45.54567848145108,-73.63936262741419,/rooms/8352005?s=igZwW-sq,44021800,8352005,FAUX,65,"Ahuntsic-Cartierville, Montréal",Logement entier,,Appartement,4,2,0,Large cozy appartement in Montreal,,,
https://fr.airbnb.ca/s/Montr%C3%A9al--Canada?neighborhoods%5B%5D=Ahuntsic-Cartierville&page=6,45.573007950602516,-73.65812653970329,/rooms/5770815?s=igZwW-sq,7341363,5770815,FAUX,59,"Ahuntsic-Cartierville, Montréal",Logement entier,Vrai lit,Maison,2,1,5/4/2015,Proche rivière et parc,6 commentaires,,
https://fr.airbnb.ca/s/Montr%C3%A9al--Canada?neighborhoods%5B%5D=Ahuntsic-Cartierville&page=6,45.55276568075812,-73.62885423630576,/rooms/3167851?s=igZwW-sq,6676854,3167851,FAUX,51,"Ahuntsic-Cartierville, Montréal",Chambre privée,Vrai lit,Appartement,1,1,0,"Private room, bathroom & office !",,,
https://fr.airbnb.ca/s/Montr%C3%A9al--Canada?neighborhoods%5B%5D=Ahuntsic-Cartierville&page=6,45.55413319909905,-73.62695145252151,/rooms/4017006?s=igZwW-sq,20828517,4017006,FAUX,40,"Ahuntsic-Cartierville, Montréal",Chambre privée,Vrai lit,Appartement,1,1,0,nice room in Montreal North,,,
https://fr.airbnb.ca/s/Montr%C3%A9al--Canada?neighborhoods%5B%5D=Ahuntsic-Cartierville&page=6,45.54961972130612,-73.63789435183088,/rooms/6403396?s=igZwW-sq,8245458,6403396,FAUX,55,"Ahuntsic-Cartierville, Montréal",Chambre privée,Vrai lit,Appartement,2,1,0,Chaleureuse ambiance de voyage,,,
https://fr.airbnb.ca/s/Montr%C3%A9al--Canada?neighborhoods%5B%5D=Ahuntsic-Cartierville&page=6,45.55308057774338,-73.65377143593139,/rooms/3095730?s=igZwW-sq,12211114,3095730,FAUX,45,"Ahuntsic-Cartierville, Montréal",Chambre privée,Vrai lit,Appartement,1,1,0,Large Room 14 minutes From downtown,,,
https://fr.airbnb.ca/s/Montr%C3%A9al--Canada?neighborhoods%5B%5D=Ahuntsic-Cartierville&page=6,45.51062168341001,-73.75252274754327,/rooms/8273813?s=igZwW-sq,37722695,8273813,FAUX,71,"Ahuntsic-Cartierville, Montréal",Chambre privée,,Maison,4,1,0,La nature a 15 min du centre ville,,,
https://fr.airbnb.ca/s/Montr%C3%A9al--Canada?neighborhoods%5B%5D=Ahuntsic-Cartierville&page=6,45.547197675737706,-73.65937930786026,/rooms/5810000?s=igZwW-sq,21263218,5810000,FAUX,95,"Ahuntsic-Cartierville, Montréal",Logement entier,Vrai lit,Appartement,2,1,5/4/2015,Confortable appartement (Ahunstic),3 commentaires,,
https://fr.airbnb.ca/s/Montr%C3%A9al--Canada?neighborhoods%5B%5D=Ahuntsic-Cartierville&page=6,45.53496740431387,-73.66666187400995,/rooms/7367193?s=igZwW-sq,29822317,7367193,VRAI,99,"Ahuntsic-Cartierville, Montréal",Logement entier,Vrai lit,Appartement,2,1,0,beautiful condo fully furnished,2 commentaires,,
https://fr.airbnb.ca/s/Montr%C3%A9al--Canada?neighborhoods%5B%5D=Ahuntsic-Cartierville&page=6,45.53870748509782,-73.66756109387269,/rooms/3444498?s=igZwW-sq,13225467,3444498,FAUX,59,"Ahuntsic-Cartierville, Montréal",Logement entier,,Appartement,4,1,5/4/2015,Ahuntsic-Cartierville,5 commentaires,,
https://fr.airbnb.ca/s/Montr%C3%A9al--Canada?neighborhoods%5B%5D=Ahuntsic-Cartierville&page=6,45.54271793371117,-73.69885020204504,/rooms/406701?s=igZwW-sq,2026285,406701,FAUX,250,"Ahuntsic-Cartierville, Montréal",Logement entier,,Maison,5,3,0,The countryside in Town.,1 commentaire,,
https://fr.airbnb.ca/s/Montr%C3%A9al--Canada?neighborhoods%5B%5D=Ahuntsic-Cartierville&page=6,45.55881810382805,-73.66710557923216,/rooms/7932292?s=igZwW-sq,1750622,7932292,FAUX,80,"Ahuntsic-Cartierville, Montréal",Logement entier,,Appartement,4,2,0,Montreal fabulous appt 3,1 commentaire,,
https://fr.airbnb.ca/s/Montr%C3%A9al--Canada?neighborhoods%5B%5D=Ahuntsic-Cartierville&page=6,45.55526508069468,-73.67024072744283,/rooms/3322460?s=igZwW-sq,16774661,3322460,FAUX,64,"Ahuntsic-Cartierville, Montréal",Chambre privée,Vrai lit,Appartement,1,1,0,Chambre à louer - femmes seulement,,,
https://fr.airbnb.ca/s/Montr%C3%A9al--Canada?neighborhoods%5B%5D=Ahuntsic-Cartierville&page=6,45.54132809856918,-73.64684291220354,/rooms/5458598?s=igZwW-sq,26325253,5458598,VRAI,65,"Ahuntsic-Cartierville, Montréal",Logement entier,Vrai lit,Appartement,4,1,0,grand 3 1/2 tout inclut!!!,,,
https://fr.airbnb.ca/s/Montr%C3%A9al--Canada?neighborhoods%5B%5D=Ahuntsic-Cartierville&page=7,45.54554740606558,-73.67520910883694,/rooms/7841619?s=vP2ULcj5,5716619,7841619,FAUX,72,"Ahuntsic-Cartierville, Montréal",Logement entier,Vrai lit,Appartement,2,1,0,Logement privé avec accès à la cour,2 commentaires,,
https://fr.airbnb.ca/s/Montr%C3%A9al--Canada?neighborhoods%5B%5D=Ahuntsic-Cartierville&page=7,45.54947415414314,-73.67184927951294,/rooms/453397?s=vP2ULcj5,2251007,453397,FAUX,200,"Ahuntsic-Cartierville, Montréal",Logement entier,,Maison,10,5,5.0,9 rooms perfect for families,12 commentaires,,
https://fr.airbnb.ca/s/Montr%C3%A9al--Canada?neighborhoods%5B%5D=Ahuntsic-Cartierville&page=7,45.5311320433473,-73.71509677049907,/rooms/3157791?s=vP2ULcj5,16023399,3157791,VRAI,43,"Ahuntsic-Cartierville, Montréal",Chambre privée,Vrai lit,Appartement,2,1,0,Feels like home,2 commentaires,,
https://fr.airbnb.ca/s/Montr%C3%A9al--Canada?neighborhoods%5B%5D=Ahuntsic-Cartierville&page=7,45.53994265386487,-73.69600899639569,/rooms/5775629?s=vP2ULcj5,29519647,5775629,VRAI,55,"Ahuntsic-Cartierville, Montréal",Logement entier,,Appartement,4,1,5/4/2015,Beau 31/2 très éclairé et rénové,9 commentaires,,
https://fr.airbnb.ca/s/Montr%C3%A9al--Canada?neighborhoods%5B%5D=Ahuntsic-Cartierville&page=7,45.569520524921316,-73.66046278593447,/rooms/7159651?s=vP2ULcj5,31665196,7159651,FAUX,131,"Ahuntsic-Cartierville, Montréal",Logement entier,,Maison,7,3,5.0,"Cosy house, 2 floors, Wifi, 3 BR",8 commentaires,,
https://fr.airbnb.ca/s/Montr%C3%A9al--Canada?neighborhoods%5B%5D=Ahuntsic-Cartierville&page=7,45.56779428647345,-73.65963732288452,/rooms/1284798?s=vP2ULcj5,6990006,1284798,FAUX,120,"Ahuntsic-Cartierville, Montréal",Logement entier,Vrai lit,Appartement,6,2,0,3 stars appartment in Montreal,,,
https://fr.airbnb.ca/s/Montr%C3%A9al--Canada?neighborhoods%5B%5D=Ahuntsic-Cartierville&page=7,45.55819651338577,-73.64263018029177,/rooms/722367?s=vP2ULcj5,3730291,722367,VRAI,79,"Ahuntsic-Cartierville, Montréal",Logement entier,,Appartement,8,2,5/4/2015,Le repos du voyageur,86 commentaires,,
https://fr.airbnb.ca/s/Montr%C3%A9al--Canada?neighborhoods%5B%5D=Ahuntsic-Cartierville&page=7,45.56145942388047,-73.66318279809697,/rooms/3618316?s=vP2ULcj5,18232069,3618316,FAUX,31,"Ahuntsic-Cartierville, Montréal",Chambre privée,Vrai lit,Appartement,2,1,0,Chambre sympa à Montréal - 2 étages,2 commentaires,,
https://fr.airbnb.ca/s/Montr%C3%A9al--Canada?neighborhoods%5B%5D=Ahuntsic-Cartierville&page=7,45.56010977296466,-73.66767395151209,/rooms/6494162?s=vP2ULcj5,33942195,6494162,FAUX,29,"Ahuntsic-Cartierville, Montréal",Chambre privée,Vrai lit,Appartement,2,1,0,Très Grand appartement 1000pi carré,1 commentaire,,
https://fr.airbnb.ca/s/Montr%C3%A9al--Canada?neighborhoods%5B%5D=Ahuntsic-Cartierville&page=7,45.571615337630035,-73.64610240697944,/rooms/1592606?s=vP2ULcj5,8494634,1592606,FAUX,80,"Ahuntsic-Cartierville, Montréal",Logement entier,Vrai lit,Appartement,4,0,5/4/2015,NEW studio full kitchen very calm,8 commentaires,,
https://fr.airbnb.ca/s/Montr%C3%A9al--Canada?neighborhoods%5B%5D=Ahuntsic-Cartierville&page=7,45.548354990552944,-73.67068507320032,/rooms/243701?s=vP2ULcj5,588011,243701,FAUX,65,"Ahuntsic-Cartierville, Montréal",Logement entier,Vrai lit,Appartement,3,2,0,appart. tout équipé,,,
https://fr.airbnb.ca/s/Montr%C3%A9al--Canada?neighborhoods%5B%5D=Ahuntsic-Cartierville&page=7,45.54075049688758,-73.64525144766449,/rooms/7650803?s=vP2ULcj5,1803138,7650803,FAUX,45,"Ahuntsic-Cartierville, Montréal",Logement entier,Vrai lit,Appartement,2,1,0,1 brm oasis in Ahuntsic furnished,1 commentaire,,
https://fr.airbnb.ca/s/Montr%C3%A9al--Canada?neighborhoods%5B%5D=Ahuntsic-Cartierville&page=7,45.56452373236265,-73.6545695475445,/rooms/8309710?s=vP2ULcj5,10967689,8309710,FAUX,65,"Ahuntsic-Cartierville, Montréal",Logement entier,Vrai lit,Appartement,2,1,0,Jolie petit appartement rue Fleury,,,
https://fr.airbnb.ca/s/Montr%C3%A9al--Canada?neighborhoods%5B%5D=Ahuntsic-Cartierville&page=7,45.551590511235595,-73.64196828054332,/rooms/4585363?s=vP2ULcj5,23768526,4585363,FAUX,100,"Ahuntsic-Cartierville, Montréal",Logement entier,,Appartement,3,5,0,Appartement 5.5 à louer (8940),2 commentaires,,
https://fr.airbnb.ca/s/Montr%C3%A9al--Canada?neighborhoods%5B%5D=Ahuntsic-Cartierville&page=7,45.54846897022903,-73.66690697796604,/rooms/654475?s=vP2ULcj5,1803138,654475,FAUX,105,"Ahuntsic-Cartierville, Montréal",Logement entier,,Appartement,4,2,0,2br blvd St-Laurent - Maple Suite,2 commentaires,,
https://fr.airbnb.ca/s/Montr%C3%A9al--Canada?neighborhoods%5B%5D=Ahuntsic-Cartierville&page=7,45.55666544672242,-73.66604662496569,/rooms/2889015?s=vP2ULcj5,14764662,2889015,FAUX,850,"Ahuntsic-Cartierville, Montréal",Logement entier,Vrai lit,Appartement,2,1,0,3 1/2 furnished everything included,,,
https://fr.airbnb.ca/s/Montr%C3%A9al--Canada?neighborhoods%5B%5D=Ahuntsic-Cartierville&page=7,45.54228208180098,-73.64357108340121,/rooms/1763872?s=vP2ULcj5,1803138,1763872,FAUX,91,"Ahuntsic-Cartierville, Montréal",Logement entier,,Appartement,4,2,0,Clark 2brm fully furnished suite,2 commentaires,,
https://fr.airbnb.ca/s/Montr%C3%A9al--Canada?neighborhoods%5B%5D=Ahuntsic-Cartierville&page=7,45.549925177044685,-73.65070604358938,/rooms/5014024?s=vP2ULcj5,17524980,5014024,FAUX,45,"Ahuntsic-Cartierville, Montréal",Chambre privée,Vrai lit,Maison,2,1,5.0,Déjeuner inclus près du métro!,3 commentaires,,
https://fr.airbnb.ca/s/Montr%C3%A9al--Canada?neighborhoods%5B%5D=Ahuntsic-Cartierville&page=8,45.54560353550296,-73.66457574057067,/rooms/6191647?s=sHLLjjoi,32111448,6191647,FAUX,51,"Ahuntsic-Cartierville, Montréal",Logement entier,Vrai lit,Appartement,3,1,0,Montréal à portée,,,
https://fr.airbnb.ca/s/Montr%C3%A9al--Canada?neighborhoods%5B%5D=Ahuntsic-Cartierville&page=8,45.53802149960548,-73.69707484565983,/rooms/3484010?s=sHLLjjoi,14449696,3484010,FAUX,100,"Ahuntsic-Cartierville, Montréal",Logement entier,,Maison,5,3,0,Montréal en famille,1 commentaire,,
https://fr.airbnb.ca/s/Montr%C3%A9al--Canada?neighborhoods%5B%5D=Ahuntsic-Cartierville&page=8,45.54932810162967,-73.66451151424806,/rooms/6610869?s=sHLLjjoi,22991016,6610869,FAUX,115,"Ahuntsic-Cartierville, Montréal",Logement entier,,Maison,6,3,0,Grande maison au coeur des services,1 commentaire,,
https://fr.airbnb.ca/s/Montr%C3%A9al--Canada?neighborhoods%5B%5D=Ahuntsic-Cartierville&page=8,45.54220124750199,-73.66987288890918,/rooms/759953?s=sHLLjjoi,3517393,759953,FAUX,185,"Ahuntsic-Cartierville, Montréal",Logement entier,,Maison,6,3,0,Grande maison familiale lumineuse,1 commentaire,,
https://fr.airbnb.ca/s/Montr%C3%A9al--Canada?neighborhoods%5B%5D=Ahuntsic-Cartierville&page=8,45.55846868316488,-73.66325045628946,/rooms/1817466?s=sHLLjjoi,9517755,1817466,FAUX,125,"Ahuntsic-Cartierville, Montréal",Logement entier,,Maison,4,2,0,Sympathique maison près de tout !,,,
https://fr.airbnb.ca/s/Montr%C3%A9al--Canada?neighborhoods%5B%5D=Ahuntsic-Cartierville&page=8,45.55005207858602,-73.67560800237725,/rooms/4141234?s=sHLLjjoi,21483089,4141234,FAUX,65,"Ahuntsic-Cartierville, Montréal",Logement entier,,Appartement,3,2,0,Appartement près d'Henri Bourassa,,,
https://fr.airbnb.ca/s/Montr%C3%A9al--Canada?neighborhoods%5B%5D=Ahuntsic-Cartierville&page=8,45.56173234887083,-73.6380318843665,/rooms/3069776?s=sHLLjjoi,15623838,3069776,VRAI,45,"Ahuntsic-Cartierville, Montréal",Logement entier,,Appartement,4,2,0,Appartement,2 commentaires,,
https://fr.airbnb.ca/s/Montr%C3%A9al--Canada?neighborhoods%5B%5D=Ahuntsic-Cartierville&page=8,45.56434741826582,-73.6612181125012,/rooms/985579?s=sHLLjjoi,5407811,985579,FAUX,65,"Ahuntsic-Cartierville, Montréal",Logement entier,,Appartement,4,2,5/4/2015,Charmant 2 chambres tout équipé,8 commentaires,,
https://fr.airbnb.ca/s/Montr%C3%A9al--Canada?neighborhoods%5B%5D=Ahuntsic-Cartierville&page=8,45.563305489040104,-73.64928227458525,/rooms/1327425?s=sHLLjjoi,7203941,1327425,FAUX,48,"Ahuntsic-Cartierville, Montréal",Chambre privée,Vrai lit,Appartement,1,1,0,Nice furnished room available,1 commentaire,,
https://fr.airbnb.ca/s/Montr%C3%A9al--Canada?neighborhoods%5B%5D=Ahuntsic-Cartierville&page=8,45.55619548140405,-73.65199926450815,/rooms/885225?s=sHLLjjoi,4355488,885225,FAUX,425,"Ahuntsic-Cartierville, Montréal",Logement entier,,Maison,6,3,0,Cottage au coeur de Montréal,,,
https://fr.airbnb.ca/s/Montr%C3%A9al--Canada?neighborhoods%5B%5D=Ahuntsic-Cartierville&page=8,45.54135213696989,-73.67297360465592,/rooms/7946467?s=sHLLjjoi,41905371,7946467,FAUX,91,"Ahuntsic-Cartierville, Montréal",Logement entier,,Appartement,6,3,0,3 Chambres fermées. Montréal. /O/,,,
https://fr.airbnb.ca/s/Montr%C3%A9al--Canada?neighborhoods%5B%5D=Ahuntsic-Cartierville&page=8,45.56059043133996,-73.63637959689734,/rooms/145146?s=sHLLjjoi,514053,145146,FAUX,45,"Ahuntsic-Cartierville, Montréal",Chambre privée,Vrai lit,Maison,4,1,5.0,Nice Bedroom Nice People,5 commentaires,,
https://fr.airbnb.ca/s/Montr%C3%A9al--Canada?neighborhoods%5B%5D=Ahuntsic-Cartierville&page=8,45.55318094130971,-73.65880363992171,/rooms/7329762?s=sHLLjjoi,36557891,7329762,FAUX,91,"Ahuntsic-Cartierville, Montréal",Logement entier,Vrai lit,Appartement,4,1,0,Près du métro-apart spacieux,,,
https://fr.airbnb.ca/s/Montr%C3%A9al--Canada?neighborhoods%5B%5D=Ahuntsic-Cartierville&page=8,45.54824609235904,-73.6399096376669,/rooms/5713209?s=sHLLjjoi,29619993,5713209,FAUX,76,"Ahuntsic-Cartierville, Montréal",Logement entier,,Maison,4,2,0,5 1/2 Villeray metro Crémazie.,,,
https://fr.airbnb.ca/s/Montr%C3%A9al--Canada?neighborhoods%5B%5D=Ahuntsic-Cartierville&page=8,45.53657002144716,-73.67388505028899,/rooms/5837052?s=sHLLjjoi,30301402,5837052,FAUX,87,"Ahuntsic-Cartierville, Montréal",Logement entier,,Appartement,5,2,0,"Cozy, Clean, Family-friendly Condo",2 commentaires,,
https://fr.airbnb.ca/s/Montr%C3%A9al--Canada?neighborhoods%5B%5D=Ahuntsic-Cartierville&page=8,45.561466831545786,-73.65848038662168,/rooms/195649?s=sHLLjjoi,924349,195649,FAUX,179,"Ahuntsic-Cartierville, Montréal",Logement entier,,Appartement,10,4,5.0,Pour Familles Designer Condo 4 ch-,23 commentaires,,
https://fr.airbnb.ca/s/Montr%C3%A9al--Canada?neighborhoods%5B%5D=Ahuntsic-Cartierville&page=8,45.5501471490083,-73.6415917036096,/rooms/4586103?s=sHLLjjoi,23768526,4586103,FAUX,125,"Ahuntsic-Cartierville, Montréal",Logement entier,,Appartement,3,3,0,Appartement 5.5 à louer (8942),,,
https://fr.airbnb.ca/s/Montr%C3%A9al--Canada?neighborhoods%5B%5D=Ahuntsic-Cartierville&page=8,45.53394010951355,-73.67940434849928,/rooms/8942837?s=sHLLjjoi,46746643,8942837,FAUX,75,"Ahuntsic-Cartierville, Montréal",Logement entier,,Appartement,6,2,0,Large Modern 2 bedroom Condo.,1 commentaire,,
https://fr.airbnb.ca/s/Montr%C3%A9al--Canada?neighborhoods%5B%5D=Ahuntsic-Cartierville&page=9,45.5584148839794,-73.66072825206523,/rooms/2694348?s=xHAXMuA-,13789463,2694348,FAUX,55,"Ahuntsic-Cartierville, Montréal",Chambre privée,Futon,Appartement,2,1,5.0,CHAMBRE À LOUER POUR COURT SÉJOUR,6 commentaires,,
https://fr.airbnb.ca/s/Montr%C3%A9al--Canada?neighborhoods%5B%5D=Ahuntsic-Cartierville&page=9,45.575518213304086,-73.65328784632855,/rooms/7280918?s=xHAXMuA-,38125059,7280918,FAUX,151,"Ahuntsic-Cartierville, Montréal",Logement entier,,Appartement,4,2,5.0,"Beau condo, piscine creusée privée",5 commentaires,,
https://fr.airbnb.ca/s/Montr%C3%A9al--Canada?neighborhoods%5B%5D=Ahuntsic-Cartierville&page=9,45.5720821783799,-73.64311031319133,/rooms/4376647?s=xHAXMuA-,10787494,4376647,VRAI,69,"Ahuntsic-Cartierville, Montréal",Logement entier,,Maison,5,1,5/4/2015,Montréal à bon prix + chaleureux,29 commentaires,,
https://fr.airbnb.ca/s/Montr%C3%A9al--Canada?neighborhoods%5B%5D=Ahuntsic-Cartierville&page=9,45.54087373377776,-73.64454479687217,/rooms/4663019?s=xHAXMuA-,24128291,4663019,FAUX,75,"Ahuntsic-Cartierville, Montréal",Logement entier,,Appartement,5,2,5/4/2015,Venez nous voir!!!,16 commentaires,,
https://fr.airbnb.ca/s/Montr%C3%A9al--Canada?neighborhoods%5B%5D=Ahuntsic-Cartierville&page=9,45.530127520587314,-73.72000339476679,/rooms/4849272?s=xHAXMuA-,6402123,4849272,FAUX,100,"Ahuntsic-Cartierville, Montréal",Logement entier,Vrai lit,Appartement,3,1,0,"Appartement chaleureux, bien situé.",,,
https://fr.airbnb.ca/s/Montr%C3%A9al--Canada?neighborhoods%5B%5D=Ahuntsic-Cartierville&page=9,45.55526880767788,-73.64568132255454,/rooms/6922616?s=xHAXMuA-,15637356,6922616,FAUX,115,"Ahuntsic-Cartierville, Montréal",Logement entier,,Appartement,6,3,0,"Chaleureux, 3 ch, quartier calme",1 commentaire,,
https://fr.airbnb.ca/s/Montr%C3%A9al--Canada?neighborhoods%5B%5D=Ahuntsic-Cartierville&page=9,45.549577849398865,-73.66255096620436,/rooms/4833661?s=xHAXMuA-,8659289,4833661,FAUX,250,"Ahuntsic-Cartierville, Montréal",Logement entier,,Maison,8,3,5.0,Modern home in MTL,10 commentaires,,
https://fr.airbnb.ca/s/Montr%C3%A9al--Canada?neighborhoods%5B%5D=Ahuntsic-Cartierville&page=9,45.551193944347524,-73.63951090963234,/rooms/7337296?s=xHAXMuA-,3629248,7337296,FAUX,59,"Ahuntsic-Cartierville, Montréal",Logement entier,Vrai lit,Appartement,2,1,0,Confortable&calme comme à la maison,2 commentaires,,
https://fr.airbnb.ca/s/Montr%C3%A9al--Canada?neighborhoods%5B%5D=Ahuntsic-Cartierville&page=9,45.53402944624208,-73.67249535704036,/rooms/5466755?s=xHAXMuA-,28352091,5466755,FAUX,80,"Ahuntsic-Cartierville, Montréal",Logement entier,Vrai lit,Appartement,2,1,0,The Cozy Pink Palace in Montreal,,,
https://fr.airbnb.ca/s/Montr%C3%A9al--Canada?neighborhoods%5B%5D=Ahuntsic-Cartierville&page=9,45.5448862534076,-73.66686279194391,/rooms/947428?s=xHAXMuA-,5135029,947428,FAUX,131,"Ahuntsic-Cartierville, Montréal",Logement entier,,Appartement,4,2,5/4/2015,Mtl App. tout neuf éclairé & stylé!,6 commentaires,,
https://fr.airbnb.ca/s/Montr%C3%A9al--Canada?price_min=216&price_max=217,44.85694858776403,-73.29224496421729,/rooms/43283?s=41UA0UNt,16825,43283,FAUX,224,Alburgh,Logement entier,,Cabane,8,3,4.0,Cozy log cabin on Lake Champlain,13 commentaires,,
https://fr.airbnb.ca/s/Montr%C3%A9al--Canada?price_min=244&price_max=245,44.967559861749336,-73.30390975176833,/rooms/8001228?s=rBPEsJ_C,42237861,8001228,FAUX,253,Alburgh,Logement entier,Vrai lit,Cabane,2,1,0,Cozy Cottage on Lake Champlain,,,
https://fr.airbnb.ca/s/Montr%C3%A9al--Canada?price_min=330&price_max=331,44.96917941631241,-73.23294284435404,/rooms/1174464?s=lwIZ-1kx,1790883,1174464,FAUX,342,Alburgh,Logement entier,,Maison,6,2,5.0,Waterfront Home on Lake Champlain,4 commentaires,,
https://fr.airbnb.ca/s/Montr%C3%A9al--Canada?price_min=397&price_max=398,45.0036632986267,-73.21412006320705,/rooms/4420838?s=rl42IO2U,22948224,4420838,VRAI,410,Alburgh,Logement entier,,Maison,10,4,5/4/2015,Beautiful Lake Champlain House,4 commentaires,,
https://fr.airbnb.ca/s/Montr%C3%A9al--Canada?price_min=463&price_max=464,45.01305724220132,-73.21156159976252,/rooms/1346138?s=C9fEzozH,1175598,1346138,VRAI,478,Alburgh,Logement entier,,Maison,12,6,0,Blue Spruce Lake House,,,
https://fr.airbnb.ca/s/Montr%C3%A9al--Canada?neighborhoods%5B%5D=Anjou&page=1,45.59341400528554,-73.56000837997252,/rooms/5511254?s=TUShnUn3,28585729,5511254,FAUX,95,Anjou,Logement entier,,Appartement,5,2,5/4/2015,Appartement 2 chambres à Anjou !:),4 commentaires,,
https://fr.airbnb.ca/s/Montr%C3%A9al--Canada?neighborhoods%5B%5D=Anjou&page=1,45.61171903240444,-73.54889654346039,/rooms/7910913?s=TUShnUn3,37102221,7910913,FAUX,199,"Anjou, Montréal",Logement entier,,Maison de ville,8,4,0,Très belle maison à étages,,,
https://fr.airbnb.ca/s/Montr%C3%A9al--Canada?neighborhoods%5B%5D=Anjou&page=1,45.60734164571779,-73.58468024893601,/rooms/9199566?s=TUShnUn3,27858527,9199566,FAUX,39,"Anjou, Montréal",Chambre privée,Vrai lit,Appartement,2,1,0,Condo Galeries d'Anjou,,,
https://fr.airbnb.ca/s/Montr%C3%A9al--Canada?neighborhoods%5B%5D=Anjou&page=1,45.613689593439176,-73.5546602960334,/rooms/9106408?s=TUShnUn3,47466592,9106408,FAUX,25,"Anjou, Montréal",Chambre privée,Vrai lit,Appartement,2,1,0,Petit appartement lumineux et calme,,,
https://fr.airbnb.ca/s/Montr%C3%A9al--Canada?neighborhoods%5B%5D=Anjou&page=1,45.61715629899132,-73.55478939799214,/rooms/9109628?s=TUShnUn3,47358611,9109628,FAUX,40,"Anjou, Montréal",Chambre privée,,Maison,2,1,0,Cozy and beautiful rooms to rent,,,
https://fr.airbnb.ca/s/Montr%C3%A9al--Canada?neighborhoods%5B%5D=Anjou&page=1,45.5950555020818,-73.56036120035886,/rooms/5819602?s=TUShnUn3,28585729,5819602,FAUX,55,"Anjou, Montréal",Chambre privée,Vrai lit,Appartement,2,1,0,Jolie chambre double à Anjou !,1 commentaire,,
https://fr.airbnb.ca/s/Montr%C3%A9al--Canada?neighborhoods%5B%5D=Anjou&page=1,45.60181275895311,-73.58241001758216,/rooms/6748884?s=TUShnUn3,6059845,6748884,FAUX,100,"Anjou, Montréal",Chambre privée,Vrai lit,Appartement,2,1,0,"chambre,condo",,,
https://fr.airbnb.ca/s/Montr%C3%A9al--Canada?neighborhoods%5B%5D=Anjou&page=1,45.6035842886774,-73.57439051033822,/rooms/4669345?s=TUShnUn3,24155816,4669345,FAUX,65,"Anjou, Montréal",Chambre privée,Vrai lit,Appartement,1,1,0,cuarto en renta,,,
https://fr.airbnb.ca/s/Montr%C3%A9al--Canada?neighborhoods%5B%5D=Anjou&page=1,45.6137806889467,-73.5461576166011,/rooms/4351701?s=TUShnUn3,22589917,4351701,VRAI,52,"Anjou, Montréal",Logement entier,,Maison,4,2,0,bienvenue,1 commentaire,,
https://fr.airbnb.ca/s/Montr%C3%A9al--Canada?neighborhoods%5B%5D=Anjou&page=1,45.60011420424356,-73.57823546294395,/rooms/8523544?s=TUShnUn3,43634501,8523544,FAUX,31,"Anjou, Montréal",Chambre privée,Vrai lit,Appartement,2,1,0,Logement tranquille,,,
https://fr.airbnb.ca/s/Montr%C3%A9al--Canada?neighborhoods%5B%5D=Anjou&page=1,45.605183294720845,-73.57471036202827,/rooms/5202872?s=TUShnUn3,24155816,5202872,FAUX,65,"Anjou, Montréal",Chambre privée,Vrai lit,Appartement,1,1,0,Chambre meublé à louer,,,
https://fr.airbnb.ca/s/Montr%C3%A9al--Canada?neighborhoods%5B%5D=Anjou&page=1,45.60171207764752,-73.57653480285282,/rooms/4901587?s=TUShnUn3,25231294,4901587,FAUX,31,"Anjou, Montréal",Chambre privée,Vrai lit,Appartement,1,1,0,Chambre privée à louer,,,
https://fr.airbnb.ca/s/Montr%C3%A9al--Canada?neighborhoods%5B%5D=Baie-D%27Urf%C3%A9&page=1,45.41376108945486,-73.90745260399227,/rooms/211602?s=pj5Ts09t,407029,211602,VRAI,71,"Baie-D'Urfé, Baie-D'Urfe",Logement entier,Vrai lit,Appartement,2,1,5.0,Beautiful sun-filled apartment,44 commentaires,,
https://fr.airbnb.ca/s/Montr%C3%A9al--Canada?neighborhoods%5B%5D=Baie-D%27Urf%C3%A9&page=1,45.41810468171189,-73.90336997183806,/rooms/5839427?s=pj5Ts09t,30317665,5839427,FAUX,652,"Baie-D'Urfé, Baie-d'Urfé",Logement entier,,Maison,9,4,0,"Amazing Backyard Paradise, Sleeps 9",1 commentaire,,
https://fr.airbnb.ca/s/Montr%C3%A9al--Canada?neighborhoods%5B%5D=Beaconsfield&page=1,45.43328289831635,-73.85238464700944,/rooms/8839981?s=9wvzFPNZ,43525109,8839981,VRAI,53,Beaconsfield,Chambre privée,Vrai lit,Bed & Breakfast,2,1,0,House Charming w/Breakfast,1 commentaire,,
https://fr.airbnb.ca/s/Montr%C3%A9al--Canada?neighborhoods%5B%5D=Beaconsfield&page=1,45.42553934536412,-73.88727618250446,/rooms/8172162?s=9wvzFPNZ,24844489,8172162,FAUX,274,Beaconsfield,Logement entier,,Maison,4,2,0,Bungalow à Beaconsfield,,,
https://fr.airbnb.ca/s/Montr%C3%A9al--Canada?neighborhoods%5B%5D=Beaconsfield&page=1,45.4349682665619,-73.8548899636303,/rooms/164042?s=9wvzFPNZ,782627,164042,FAUX,48,Beaconsfield,Chambre privée,Matelas pneumatique,Appartement,2,1,5.0,"Nice and tidy, Montreal suburb",10 commentaires,,
https://fr.airbnb.ca/s/Montr%C3%A9al--Canada?neighborhoods%5B%5D=Beaconsfield&page=1,45.43032451560306,-73.84896473773289,/rooms/8555368?s=9wvzFPNZ,45033487,8555368,FAUX,141,Beaconsfield,Logement entier,,Maison de ville,5,2,0,Bright modern living space,,,
https://fr.airbnb.ca/s/Montr%C3%A9al--Canada?neighborhoods%5B%5D=Beaconsfield&page=1,45.420565898965606,-73.89066337523317,/rooms/3170717?s=9wvzFPNZ,16067856,3170717,FAUX,51,Beaconsfield,Chambre privée,Vrai lit,Maison,2,1,0,Cozy room with a private bathroom!,2 commentaires,,
https://fr.airbnb.ca/s/Montr%C3%A9al--Canada?neighborhoods%5B%5D=Beaconsfield&page=1,45.43612159410416,-73.88457313735763,/rooms/7274567?s=9wvzFPNZ,38084214,7274567,FAUX,55,Beaconsfield,Chambre privée,,Maison,4,1,0,"Clean home, pool, parking",2 commentaires,,
https://fr.airbnb.ca/s/Montr%C3%A9al--Canada?neighborhoods%5B%5D=Beaconsfield&page=1,45.43759171752407,-73.87113549686734,/rooms/6763547?s=9wvzFPNZ,15050323,6763547,FAUX,40,Beaconsfield,Chambre privée,Vrai lit,Maison,2,1,0,CLEAN & PRIVATE ROOM and BATHROOM,2 commentaires,,
https://fr.airbnb.ca/s/Montr%C3%A9al--Canada?neighborhoods%5B%5D=Beaconsfield&page=1,45.444115670583365,-73.83972303960118,/rooms/4958786?s=9wvzFPNZ,20037315,4958786,FAUX,131,Beaconsfield,Logement entier,,Maison,6,NULL,0,VERY HOMY AND COZY 3 BDRS HOUSE,,,
https://fr.airbnb.ca/s/Montr%C3%A9al--Canada?neighborhoods%5B%5D=Beaconsfield&page=1,45.433020793872835,-73.84123404914163,/rooms/8846462?s=9wvzFPNZ,1492316,8846462,VRAI,125,Beaconsfield,Logement entier,,Maison,6,3,0,Modern Beaconsfield Bungalow,2 commentaires,,
https://fr.airbnb.ca/s/Montr%C3%A9al--Canada?price_min=284&price_max=285,45.65188268297716,-73.79720711922837,/rooms/5479313?s=e6l1Y5EA,28414803,5479313,FAUX,285,Blainville,Logement entier,,Villa,8,4,0,Beautiful home 4 bedrooms,,,
https://fr.airbnb.ca/s/Montr%C3%A9al--Canada?price_min=499&price_max=500,45.67025131707921,-73.81249915291399,/rooms/6555009?s=-Zo15bL7,34277655,6555009,FAUX,500,Blainville,Logement entier,,Villa,6,5,0,Grande villa avec piscine,,,
https://fr.airbnb.ca/s/Montr%C3%A9al--Canada?price_min=273&price_max=274,45.628922034132515,-73.85232614162595,/rooms/7326598?s=QgrtI0lM,38381430,7326598,FAUX,275,Boisbriand,Logement entier,,Maison,4,2,0,Superbe maison de ville,,,
https://fr.airbnb.ca/s/Montr%C3%A9al--Canada?price_min=126&price_max=127,45.5731320552658,-73.44426379338253,/rooms/5928200?s=DtoyGGTG,30780549,5928200,FAUX,126,Boucherville,Chambre privée,,Autre,4,1,0,Hôtel Welcominns,1 commentaire,,
https://fr.airbnb.ca/s/Montr%C3%A9al--Canada?price_min=142&price_max=143,45.61428844119561,-73.45564674171636,/rooms/7066344?s=QiuZyi-h,37050604,7066344,FAUX,142,Boucherville,Logement entier,,Maison,6,3,0,Sunsets on a porch swing,,,
https://fr.airbnb.ca/s/Montr%C3%A9al--Canada?price_min=170&price_max=171,45.592054939974325,-73.45998165207824,/rooms/8682437?s=ecH5azOe,45594456,8682437,FAUX,170,Boucherville,Logement entier,,Maison,9,6,0,Grande maison (quartier paisible),,,
https://fr.airbnb.ca/s/Montr%C3%A9al--Canada?price_min=187&price_max=188,45.583347886319174,-73.40159147667978,/rooms/1071298?s=dXXbyDiL,5893159,1071298,FAUX,188,Boucherville,Logement entier,Vrai lit,Appartement,4,2,0,Luxury condo to rent,,,
https://fr.airbnb.ca/s/Montr%C3%A9al--Canada?price_min=344&price_max=345,45.60002166958605,-73.43000511974314,/rooms/6793998?s=qCBt9WOd,35033905,6793998,VRAI,355,Boucherville,Logement entier,,Maison,8,5,0,Maison canadienne spacieuse,2 commentaires,,
https://fr.airbnb.ca/s/Montr%C3%A9al--Canada?price_min=153&price_max=154,45.30929575235078,-72.63267271698061,/rooms/5154248?s=Lxrr5rr8,22958348,5154248,FAUX,154,Bromont,Chambre privée,,Bed & Breakfast,3,1,0,Le Bromontoît B&B • LA 3,,,
https://fr.airbnb.ca/s/Montr%C3%A9al--Canada?price_min=196&price_max=197,45.30305158884218,-72.63452812257903,/rooms/4544646?s=okzkSHSg,23564375,4544646,FAUX,198,Bromont,Logement entier,Vrai lit,Chalet,4,1,0,Slope Side Heaven,1 commentaire,,
https://fr.airbnb.ca/s/Montr%C3%A9al--Canada?price_min=234&price_max=235,45.31005873153857,-72.67139122629243,/rooms/4914846?s=fWzBCxLE,25309885,4914846,FAUX,235,Bromont,Logement entier,,Maison,7,3,0,location chalet Ski Golf Équestre,2 commentaires,,
https://fr.airbnb.ca/s/Montr%C3%A9al--Canada?price_min=234&price_max=235,45.31027175850207,-72.67249886671904,/rooms/4865400?s=fWzBCxLE,24596118,4865400,FAUX,235,Bromont,Logement entier,,Chalet,7,3,0,Chalet Bromont/Ski/Golf/Équitation,2 commentaires,,
https://fr.airbnb.ca/s/Montr%C3%A9al--Canada?price_min=451&price_max=452,45.308618845290106,-72.63207952708993,/rooms/4422732?s=0Srs4nlJ,22958348,4422732,FAUX,451,Bromont,Logement entier,,Bed & Breakfast,11,3,0,Le Bromontoît B&B • 3 GUEST ROOMS,,,
https://fr.airbnb.ca/s/Montr%C3%A9al--Canada?price_min=131&price_max=132,45.472505638609015,-73.48186590977888,/rooms/3209115?s=0eUVSV8q,15200534,3209115,FAUX,137,Brossard,Logement entier,,Maison,5,3,0,15 minutes away from Downtown,,,
https://fr.airbnb.ca/s/Montr%C3%A9al--Canada?price_min=183&price_max=184,45.40122154335341,-73.52237859310863,/rooms/9300673?s=kD9xILrK,48282692,9300673,FAUX,184,Candiac,Logement entier,,Maison,6,3,0,Luxueuse maison vu sur le fleuve,,,
https://fr.airbnb.ca/s/Montr%C3%A9al--Canada?price_min=398&price_max=399,45.44919197276949,-73.29122830067531,/rooms/2954127?s=lH3DsbfY,15079059,2954127,FAUX,399,Chambly,Chambre partagée,,Bateau,2,1,0,Voilier privé de 44 pieds ÉVASION,,,
https://fr.airbnb.ca/s/Montr%C3%A9al--Canada?price_min=330&price_max=331,44.94290537150759,-73.35310764813441,/rooms/657125?s=lwIZ-1kx,3311289,657125,FAUX,342,Champlain,Logement entier,,Bed & Breakfast,5,3,5.0,Lakehouse B&B on Lake Champlain,9 commentaires,,
https://fr.airbnb.ca/s/Montr%C3%A9al--Canada?price_min=231&price_max=232,44.87208724052618,-73.38830984483567,/rooms/2447357?s=NTQ-d-PN,12515200,2447357,FAUX,239,Chazy,Logement entier,,Maison,7,3,5.0,Quaint Family Cabin on the Lake,4 commentaires,,
https://fr.airbnb.ca/s/Montr%C3%A9al--Canada?price_min=162&price_max=163,46.12647705117231,-73.8608294200363,/rooms/8612381?s=__UuD98o,45283941,8612381,VRAI,162,Chertsey,Logement entier,,Chalet,6,3,0,Chalet Nidoiseaux,2 commentaires,,
https://fr.airbnb.ca/s/Montr%C3%A9al--Canada?price_min=251&price_max=252,46.01532475879769,-73.90330166875674,/rooms/6842119?s=-MpOUELq,35806720,6842119,FAUX,251,Chertsey,Logement entier,,Chalet,10,4,0,Chalet magnifique sur le lac,,,
https://fr.airbnb.ca/s/Montr%C3%A9al--Canada?neighborhoods%5B%5D=Chinatown&page=1,45.506255308697924,-73.56505582349408,/rooms/7387331?s=1A8yHJfF,38699245,7387331,FAUX,99,"Chinatown, Montréal",Logement entier,Vrai lit,Appartement,2,1,5.0,"Le V - Centre ville, à l'hôtel!",10 commentaires,,
https://fr.airbnb.ca/s/Montr%C3%A9al--Canada?neighborhoods%5B%5D=Chinatown&page=1,45.50497199086104,-73.56263057427202,/rooms/3094294?s=1A8yHJfF,15736663,3094294,FAUX,195,"Chinatown, Montréal",Logement entier,Vrai lit,Appartement,2,0,5.0,Montréal Palais des congrès 2,7 commentaires,,
https://fr.airbnb.ca/s/Montr%C3%A9al--Canada?neighborhoods%5B%5D=Chinatown&page=1,45.5056282985286,-73.563616367713,/rooms/8424932?s=1A8yHJfF,44369008,8424932,FAUX,51,"Chinatown, Montréal",Chambre privée,Vrai lit,Loft,2,1,0,Room in a artist loft,,,
https://fr.airbnb.ca/s/Montr%C3%A9al--Canada?neighborhoods%5B%5D=Chinatown&page=1,45.50518198623691,-73.56165847935465,/rooms/5862446?s=1A8yHJfF,22630780,5862446,FAUX,40,"Chinatown, Montréal",Logement entier,Vrai lit,Appartement,5,1,5.0,Amazing Condo in Downtown,10 commentaires,,
https://fr.airbnb.ca/s/Montr%C3%A9al--Canada?neighborhoods%5B%5D=Chinatown&page=1,45.50619599708725,-73.56518333818663,/rooms/7476039?s=1A8yHJfF,24407526,7476039,FAUX,171,"Chinatown, Montréal",Logement entier,,Appartement en résidence,4,2,5/4/2015,Great Apartement Downtown Montréal,3 commentaires,,
https://fr.airbnb.ca/s/Montr%C3%A9al--Canada?neighborhoods%5B%5D=Chinatown&page=1,45.50565304141755,-73.56444810396569,/rooms/718148?s=1A8yHJfF,29566,718148,FAUX,151,"Chinatown, Montréal",Logement entier,,Appartement,4,2,5.0,CHIC!Downtown*Old Port*Garage*2bdr,27 commentaires,,
https://fr.airbnb.ca/s/Montr%C3%A9al--Canada?neighborhoods%5B%5D=Chinatown&page=1,45.50598298884279,-73.56254011210139,/rooms/9425573?s=1A8yHJfF,46113643,9425573,FAUX,71,"Chinatown, Montréal",Logement entier,Vrai lit,Appartement,3,1,0,Appartement centre ville,,,
https://fr.airbnb.ca/s/Montr%C3%A9al--Canada?neighborhoods%5B%5D=Chinatown&page=1,45.50468134262814,-73.56499143074063,/rooms/7913027?s=1A8yHJfF,38459934,7913027,FAUX,145,"Chinatown, Montréal",Logement entier,Vrai lit,Appartement,2,0,0,Vistal studio Apartment,,,
https://fr.airbnb.ca/s/Montr%C3%A9al--Canada?neighborhoods%5B%5D=Chinatown&page=1,45.50364391497671,-73.56293843410461,/rooms/9182215?s=1A8yHJfF,24084514,9182215,VRAI,91,"Chinatown, Montréal",Logement entier,Vrai lit,Appartement,4,1,0,Downtown Montreal 2 Floor NEW Condo,,,
https://fr.airbnb.ca/s/Montr%C3%A9al--Canada?neighborhoods%5B%5D=Chinatown&page=1,45.50306000371464,-73.56249621415293,/rooms/9032029?s=1A8yHJfF,47144955,9032029,FAUX,55,"Chinatown, Montréal",Logement entier,Vrai lit,Appartement,1,1,0,Beautiful 1 bedroom in old montreal,1 commentaire,,
https://fr.airbnb.ca/s/Montr%C3%A9al--Canada?neighborhoods%5B%5D=Chinatown&page=1,45.50479471315552,-73.5624839944497,/rooms/3219428?s=1A8yHJfF,15736663,3219428,FAUX,278,"Chinatown, Montréal",Logement entier,,Appartement,6,2,5.0,"Palais des congrès,centre ville 1",4 commentaires,,
https://fr.airbnb.ca/s/Montr%C3%A9al--Canada?neighborhoods%5B%5D=Chinatown&page=1,45.504272379433715,-73.5638356813496,/rooms/3119119?s=1A8yHJfF,15736663,3119119,FAUX,258,"Chinatown, Montréal",Logement entier,Vrai lit,Appartement,4,1,5.0,Centre ville Palais des congrès 4,10 commentaires,,
https://fr.airbnb.ca/s/Montr%C3%A9al--Canada?neighborhoods%5B%5D=Chinatown&page=1,45.50425712791176,-73.5627491007444,/rooms/3219653?s=1A8yHJfF,15736663,3219653,FAUX,219,"Chinatown, Montréal",Logement entier,,Appartement,4,0,5.0,Palais des congrès Centre ville 5,11 commentaires,,
https://fr.airbnb.ca/s/Montr%C3%A9al--Canada?neighborhoods%5B%5D=Chinatown&page=1,45.505258297466675,-73.56517148179395,/rooms/4245688?s=1A8yHJfF,4164015,4245688,FAUX,125,"Chinatown, Montréal",Logement entier,Vrai lit,Appartement,5,1,5/4/2015,"The Luxury Condo \ Le Belvedere \""""",15 commentaires,,
https://fr.airbnb.ca/s/Montr%C3%A9al--Canada?neighborhoods%5B%5D=Chinatown&page=1,45.50522091394149,-73.56106042209969,/rooms/7403528?s=1A8yHJfF,38794908,7403528,VRAI,71,"Chinatown, Montréal",Logement entier,Vrai lit,Appartement,2,1,0,Luxury Montreal Apartment,,,
https://fr.airbnb.ca/s/Montr%C3%A9al--Canada?neighborhoods%5B%5D=Chinatown&page=1,45.50599169666149,-73.5626787774552,/rooms/4908966?s=1A8yHJfF,15736663,4908966,FAUX,149,"Chinatown, Montréal",Logement entier,Vrai lit,Appartement,4,0,5.0,Montréal palais des congrès 3,3 commentaires,,
https://fr.airbnb.ca/s/Montr%C3%A9al--Canada?neighborhoods%5B%5D=Chinatown&page=1,45.507098087439346,-73.56325575995552,/rooms/8099992?s=1A8yHJfF,26928578,8099992,FAUX,85,"Chinatown, Montréal",Chambre privée,,Appartement,2,1,0,Downtown / Chinatown condo,,,
https://fr.airbnb.ca/s/Montr%C3%A9al--Canada?neighborhoods%5B%5D=Chinatown&page=1,45.50595291995056,-73.56527242946994,/rooms/7913185?s=1A8yHJfF,38459934,7913185,FAUX,171,"Chinatown, Montréal",Logement entier,Vrai lit,Appartement,2,1,0,Vistal 1 bedroom Apartment,,,
https://fr.airbnb.ca/s/Montr%C3%A9al--Canada?neighborhoods%5B%5D=Chinatown&page=2,45.50310182235346,-73.56260118982587,/rooms/7868311?s=FuNj0hQa,38459934,7868311,FAUX,160,"Chinatown, Montréal",Logement entier,Vrai lit,Appartement,2,1,0,Le Parisien Apartment,,,
https://fr.airbnb.ca/s/Montr%C3%A9al--Canada?neighborhoods%5B%5D=Chinatown&page=2,45.50358206238296,-73.56222587847479,/rooms/8169039?s=FuNj0hQa,38459934,8169039,FAUX,160,"Chinatown, Montréal",Logement entier,Vrai lit,Appartement,2,1,0,Majorca Apartment,,,
https://fr.airbnb.ca/s/Montr%C3%A9al--Canada?neighborhoods%5B%5D=Chinatown&page=2,45.506569776281275,-73.56264717628164,/rooms/6309620?s=FuNj0hQa,15736663,6309620,FAUX,278,"Chinatown, Montréal",Logement entier,,Appartement,4,2,0,Centre ville palais des congres 6,1 commentaire,,
https://fr.airbnb.ca/s/Montr%C3%A9al--Canada?neighborhoods%5B%5D=Chinatown&page=2,45.50305937774806,-73.56089300889795,/rooms/8169123?s=FuNj0hQa,38459934,8169123,FAUX,199,"Chinatown, Montréal",Logement entier,,Appartement,4,2,0,Henna Luxury Apartment,,,
https://fr.airbnb.ca/s/Montr%C3%A9al--Canada?neighborhoods%5B%5D=Chinatown&page=2,45.50383072553471,-73.56247017757096,/rooms/7868573?s=FuNj0hQa,38459934,7868573,FAUX,199,"Chinatown, Montréal",Logement entier,,Appartement,4,2,0,Bellagio Apartment,,,
https://fr.airbnb.ca/s/Montr%C3%A9al--Canada?neighborhoods%5B%5D=Chinatown&page=2,45.504663065996674,-73.56126228373928,/rooms/8168888?s=FuNj0hQa,38459934,8168888,FAUX,131,"Chinatown, Montréal",Logement entier,Vrai lit,Appartement,2,0,0,Emeraude Apartment,,,
https://fr.airbnb.ca/s/Montr%C3%A9al--Canada?neighborhoods%5B%5D=Chinatown&page=2,45.506489880663906,-73.56487418222218,/rooms/7913341?s=FuNj0hQa,38459934,7913341,FAUX,220,"Chinatown, Montréal",Logement entier,,Appartement,4,2,0,Vistal 2 bedrooms Apartment,,,
https://fr.airbnb.ca/s/Montr%C3%A9al--Canada?neighborhoods%5B%5D=Chinatown&page=2,45.504418501460066,-73.56302081787578,/rooms/7868101?s=FuNj0hQa,38459934,7868101,FAUX,131,"Chinatown, Montréal",Logement entier,Vrai lit,Appartement,2,0,0,Acqua Apartment,,,
https://fr.airbnb.ca/s/Montr%C3%A9al--Canada?neighborhoods%5B%5D=Chinatown&page=2,45.50537614791187,-73.56312678070036,/rooms/4149286?s=FuNj0hQa,2563156,4149286,FAUX,206,"Chinatown, Montréal",Logement entier,,Appartement,2,1,0,CLEAN/DOWNTOWN MONTREAL/Congrès,1 commentaire,,
https://fr.airbnb.ca/s/Montr%C3%A9al--Canada?neighborhoods%5B%5D=Chinatown&page=2,45.50615815689003,-73.56313273652523,/rooms/6299948?s=FuNj0hQa,32760952,6299948,FAUX,151,"Chinatown, Montréal",Logement entier,Vrai lit,Appartement en résidence,2,1,0,Condo 1 chambre centre ville,,,
https://fr.airbnb.ca/s/Montr%C3%A9al--Canada?neighborhoods%5B%5D=Chinatown&page=2,45.50510473396178,-73.56394354161073,/rooms/6475712?s=FuNj0hQa,24716,6475712,FAUX,120,"Chinatown, Montréal",Logement entier,,Appartement,5,2,0,Amazing location at Place des Arts,1 commentaire,,
https://fr.airbnb.ca/s/Montr%C3%A9al--Canada?neighborhoods%5B%5D=Chinatown&page=2,45.50631277771489,-73.5617085781786,/rooms/8223677?s=FuNj0hQa,42603661,8223677,FAUX,139,"Chinatown, Montréal",Logement entier,,Appartement en résidence,6,2,0,Location near old port/Chinatown,,,
https://fr.airbnb.ca/s/Montr%C3%A9al--Canada?neighborhoods%5B%5D=Chinatown&page=2,45.50532939618745,-73.56446297700847,/rooms/8736539?s=FuNj0hQa,45836630,8736539,FAUX,250,"Chinatown, Montréal",Logement entier,Vrai lit,Appartement en résidence,2,2,0,Skylife Condo,,,
https://fr.airbnb.ca/s/Montr%C3%A9al--Canada?price_min=338&price_max=339,45.503374943356874,-73.65410425732176,/rooms/3749728?s=CW5OusY7,10720501,3749728,FAUX,340,"Côte-des-Neiges–Notre-Dame-de-Grâce, Mont-Royal",Logement entier,,Maison,10,4,5.0,Chaleureuse maison canadienne,6 commentaires,,
https://fr.airbnb.ca/s/Montr%C3%A9al--Canada?price_min=100&price_max=101&neighborhoods%5B%5D=Cote-des-Neiges-Notre-Dame-de-Grace,45.50637728169981,-73.62525348336106,/rooms/4641302?s=lo2heNBG,22535992,4641302,FAUX,99,"Côte-des-Neiges–Notre-Dame-de-Grâce, Montréal",Logement entier,Vrai lit,Appartement,2,1,0,Cozy semi-basement,,,
https://fr.airbnb.ca/s/Montr%C3%A9al--Canada?price_min=100&price_max=101&neighborhoods%5B%5D=Cote-des-Neiges-Notre-Dame-de-Grace,45.50578648523671,-73.62814540289408,/rooms/7205620?s=lo2heNBG,37426919,7205620,FAUX,99,"Côte-des-Neiges–Notre-Dame-de-Grâce, Montréal",Chambre privée,Futon,Appartement,2,1,0,"Chambre 11'x13', LUMINEUSE, CALME",,,
https://fr.airbnb.ca/s/Montr%C3%A9al--Canada?price_min=100&price_max=101&neighborhoods%5B%5D=Cote-des-Neiges-Notre-Dame-de-Grace,45.502818323123506,-73.6197233720858,/rooms/8641671?s=lo2heNBG,45429856,8641671,FAUX,99,"Côte-des-Neiges–Notre-Dame-de-Grâce, Montréal",Logement entier,,Appartement,5,3,0,centre ville,,,
https://fr.airbnb.ca/s/Montr%C3%A9al--Canada?price_min=100&price_max=101&neighborhoods%5B%5D=Cote-des-Neiges-Notre-Dame-de-Grace&page=2,45.50651091668965,-73.62381869009432,/rooms/6776805?s=KoCC9_wl,35476702,6776805,FAUX,100,"Côte-des-Neiges–Notre-Dame-de-Grâce, Montréal",Logement entier,,Appartement,3,2,0,Près de l'Université de Montréal,,,
https://fr.airbnb.ca/s/Montr%C3%A9al--Canada?price_min=102&price_max=103&neighborhoods%5B%5D=Cote-des-Neiges-Notre-Dame-de-Grace,45.4972960093684,-73.65082645413986,/rooms/5652192?s=n_iKT-DO,29292451,5652192,FAUX,103,"Côte-des-Neiges–Notre-Dame-de-Grâce, Montréal",Logement entier,Vrai lit,Appartement,2,1,5/4/2015,Beautiful Condo,19 commentaires,,
https://fr.airbnb.ca/s/Montr%C3%A9al--Canada?price_min=104&price_max=105&neighborhoods%5B%5D=Cote-des-Neiges-Notre-Dame-de-Grace,45.49781033084208,-73.65112795143901,/rooms/9151062?s=I7vJBDH7,47644251,9151062,FAUX,105,"Côte-des-Neiges–Notre-Dame-de-Grâce, Montréal",Logement entier,Vrai lit,Appartement,3,1,0,Appartement DE LUXE,,,
https://fr.airbnb.ca/s/Montr%C3%A9al--Canada?price_min=118&price_max=119&neighborhoods%5B%5D=Cote-des-Neiges-Notre-Dame-de-Grace,45.4970306499606,-73.65182627717293,/rooms/8028816?s=dybmQ3lR,11806906,8028816,FAUX,119,"Côte-des-Neiges–Notre-Dame-de-Grâce, Montréal",Logement entier,,Appartement,5,2,5/4/2015,2 ch avec piscine gym sauna,9 commentaires,,
https://fr.airbnb.ca/s/Montr%C3%A9al--Canada?price_min=125&price_max=126&neighborhoods%5B%5D=Cote-des-Neiges-Notre-Dame-de-Grace,45.5044798680933,-73.62258037064238,/rooms/1665554?s=3CuJP-Tz,8822352,1665554,FAUX,126,"Côte-des-Neiges–Notre-Dame-de-Grâce, Montréal",Chambre privée,Vrai lit,Maison,1,1,0,Great location next to the HEC,,,
https://fr.airbnb.ca/s/Montr%C3%A9al--Canada?price_min=129&price_max=130&neighborhoods%5B%5D=Cote-des-Neiges-Notre-Dame-de-Grace,45.503952454629015,-73.64938465017966,/rooms/7066240?s=yxz0Edum,98041,7066240,FAUX,130,"Côte-des-Neiges–Notre-Dame-de-Grâce, Montréal",Logement entier,,Bungalow,6,4,0,House in north Côte-des-Neiges,,,
https://fr.airbnb.ca/s/Montr%C3%A9al--Canada?price_min=13&price_max=14&neighborhoods%5B%5D=Cote-des-Neiges-Notre-Dame-de-Grace,45.49951669341862,-73.62333177088219,/rooms/7146066?s=ZA5AVofM,16210825,7146066,VRAI,15,"Côte-des-Neiges–Notre-Dame-de-Grâce, Montréal",Chambre partagée,Vrai lit,Appartement,1,1,5/4/2015,Great location & friendly hosts!,19 commentaires,,
https://fr.airbnb.ca/s/Montr%C3%A9al--Canada?price_min=13&price_max=14&neighborhoods%5B%5D=Cote-des-Neiges-Notre-Dame-de-Grace,45.50704351429099,-73.62680361463389,/rooms/3386874?s=ZA5AVofM,5533897,3386874,FAUX,13,"Côte-des-Neiges–Notre-Dame-de-Grâce, Montréal",Chambre partagée,Vrai lit,Appartement,1,1,0,un lit dans un studio / colocation,1 commentaire,,
https://fr.airbnb.ca/s/Montr%C3%A9al--Canada?price_min=138&price_max=139&neighborhoods%5B%5D=Cote-des-Neiges-Notre-Dame-de-Grace,45.510771108812754,-73.62469289320768,/rooms/6326764?s=mdY5q0eU,32925477,6326764,FAUX,139,"Côte-des-Neiges–Notre-Dame-de-Grâce, Montréal",Logement entier,,Appartement,4,2,0,"Sunny, full Appart to yourselves !",,,
https://fr.airbnb.ca/s/Montr%C3%A9al--Canada?price_min=149&price_max=150&neighborhoods%5B%5D=Cote-des-Neiges-Notre-Dame-de-Grace,45.50820854301755,-73.63020589478016,/rooms/6545059?s=A60ZH6ja,16441080,6545059,FAUX,150,"Côte-des-Neiges–Notre-Dame-de-Grâce, Montréal",Logement entier,,Appartement,6,3,0,Family Getaway,1 commentaire,,
https://fr.airbnb.ca/s/Montr%C3%A9al--Canada?price_min=149&price_max=150&neighborhoods%5B%5D=Cote-des-Neiges-Notre-Dame-de-Grace,45.50719357017705,-73.63001708670909,/rooms/7132579?s=A60ZH6ja,16441080,7132579,FAUX,150,"Côte-des-Neiges–Notre-Dame-de-Grâce, Montréal",Logement entier,,Maison,6,3,0,Montreal family getaway,,,
https://fr.airbnb.ca/s/Montr%C3%A9al--Canada?price_min=149&price_max=150&neighborhoods%5B%5D=Cote-des-Neiges-Notre-Dame-de-Grace,45.505966714214686,-73.63255644432775,/rooms/3264866?s=A60ZH6ja,16441080,3264866,FAUX,150,"Côte-des-Neiges–Notre-Dame-de-Grâce, Montréal",Logement entier,,Appartement,6,3,0,Family Getaway,2 commentaires,,
https://fr.airbnb.ca/s/Montr%C3%A9al--Canada?price_min=169&price_max=170&neighborhoods%5B%5D=Cote-des-Neiges-Notre-Dame-de-Grace,45.50110630322213,-73.61972575802885,/rooms/6032014?s=dpU8UMF9,2947386,6032014,FAUX,170,"Côte-des-Neiges–Notre-Dame-de-Grâce, Montréal",Logement entier,,Appartement,8,5,5.0,Appartement 5 chambres et terasse !,4 commentaires,,
https://fr.airbnb.ca/s/Montr%C3%A9al--Canada?price_min=17&price_max=18&neighborhoods%5B%5D=Cote-des-Neiges-Notre-Dame-de-Grace,45.5071987596536,-73.61954387260892,/rooms/6527420?s=7RlaWlkp,15956508,6527420,FAUX,19,"Côte-des-Neiges–Notre-Dame-de-Grâce, Montréal",Chambre privée,Vrai lit,Appartement,2,1,0,Grande chambre lumineuse,1 commentaire,,
https://fr.airbnb.ca/s/Montr%C3%A9al--Canada?price_min=17&price_max=18&neighborhoods%5B%5D=Cote-des-Neiges-Notre-Dame-de-Grace,45.5019337228332,-73.62028910381538,/rooms/6343571?s=7RlaWlkp,33037615,6343571,FAUX,19,"Côte-des-Neiges–Notre-Dame-de-Grâce, Montréal",Logement entier,Vrai lit,Appartement,1,1,0,Superbe appartement 4 1/2,,,
https://fr.airbnb.ca/s/Montr%C3%A9al--Canada?price_min=19&price_max=20&neighborhoods%5B%5D=Cote-des-Neiges-Notre-Dame-de-Grace,45.507644220758024,-73.62400191788933,/rooms/3596239?s=WY9x6X73,18119787,3596239,FAUX,20,"Côte-des-Neiges–Notre-Dame-de-Grâce, Montréal",Chambre privée,Vrai lit,Appartement,2,1,0,Grande chambre avec lit double,2 commentaires,,
https://fr.airbnb.ca/s/Montr%C3%A9al--Canada?price_min=194&price_max=195&neighborhoods%5B%5D=Cote-des-Neiges-Notre-Dame-de-Grace,45.506109705507015,-73.61745169558698,/rooms/8061949?s=tNVkh33N,42537493,8061949,FAUX,195,"Côte-des-Neiges–Notre-Dame-de-Grâce, Montréal",Logement entier,,Maison,6,2,0,Duplex - 2ième étage,,,
https://fr.airbnb.ca/s/Montr%C3%A9al--Canada?price_min=199&price_max=200&neighborhoods%5B%5D=Cote-des-Neiges-Notre-Dame-de-Grace,45.50864337431729,-73.62074171171575,/rooms/8303106?s=mQ9395Lm,43777889,8303106,FAUX,200,"Côte-des-Neiges–Notre-Dame-de-Grâce, Montréal",Logement entier,,Appartement,6,3,0,Place Plantagenet,,,
https://fr.airbnb.ca/s/Montr%C3%A9al--Canada?price_min=20&price_max=21&neighborhoods%5B%5D=Cote-des-Neiges-Notre-Dame-de-Grace,45.510636704145824,-73.62993804744626,/rooms/3344266?s=0ptKYQun,16879239,3344266,FAUX,21,"Côte-des-Neiges–Notre-Dame-de-Grâce, Montréal",Chambre privée,Vrai lit,Appartement,2,1,0,Belle grande chambre - Montréal,1 commentaire,,
https://fr.airbnb.ca/s/Montr%C3%A9al--Canada?price_min=20&price_max=21&neighborhoods%5B%5D=Cote-des-Neiges-Notre-Dame-de-Grace,45.50931889487523,-73.61884796331987,/rooms/8261654?s=0ptKYQun,42059461,8261654,FAUX,21,"Côte-des-Neiges–Notre-Dame-de-Grâce, Montréal",Chambre privée,Vrai lit,Bed & Breakfast,1,1,0,Petite chambre avec vue sur jardin,2 commentaires,,
https://fr.airbnb.ca/s/Montr%C3%A9al--Canada?price_min=21&price_max=22&neighborhoods%5B%5D=Cote-des-Neiges-Notre-Dame-de-Grace,45.50653449397144,-73.61798845351714,/rooms/9318321?s=8F38LESf,48364820,9318321,FAUX,23,"Côte-des-Neiges–Notre-Dame-de-Grâce, Montréal",Chambre privée,Vrai lit,Appartement,1,1,0,Belle chambre lumineuse a louer,,,
https://fr.airbnb.ca/s/Montr%C3%A9al--Canada?price_min=21&price_max=22&neighborhoods%5B%5D=Cote-des-Neiges-Notre-Dame-de-Grace,45.500667387983015,-73.62069091333655,/rooms/9185750?s=8F38LESf,47791270,9185750,FAUX,23,"Côte-des-Neiges–Notre-Dame-de-Grâce, Montréal",Chambre privée,Vrai lit,Appartement,1,1,0,Bel appartement ensoleillé,,,
https://fr.airbnb.ca/s/Montr%C3%A9al--Canada?price_min=23&price_max=24&neighborhoods%5B%5D=Cote-des-Neiges-Notre-Dame-de-Grace,45.499790999756435,-73.62066634517578,/rooms/9278637?s=_t0TZBnI,20554753,9278637,FAUX,24,"Côte-des-Neiges–Notre-Dame-de-Grâce, Montréal",Chambre privée,Vrai lit,Appartement,2,1,0,Chambre à louer bel appartement,,,
https://fr.airbnb.ca/s/Montr%C3%A9al--Canada?price_min=23&price_max=24&neighborhoods%5B%5D=Cote-des-Neiges-Notre-Dame-de-Grace,45.5123941166122,-73.62921095464715,/rooms/3315565?s=_t0TZBnI,15760129,3315565,FAUX,24,"Côte-des-Neiges–Notre-Dame-de-Grâce, Montréal",Chambre privée,Vrai lit,Appartement,2,1,4.0,Lit double et balcon,12 commentaires,,
https://fr.airbnb.ca/s/Montr%C3%A9al--Canada?price_min=24&price_max=25&neighborhoods%5B%5D=Cote-des-Neiges-Notre-Dame-de-Grace,45.50468321052231,-73.62345420401248,/rooms/7328916?s=04TZRKHC,38393642,7328916,FAUX,25,"Côte-des-Neiges–Notre-Dame-de-Grâce, Montréal",Chambre privée,Vrai lit,Appartement,2,1,0,Chambre sympathique - UdM,1 commentaire,,
https://fr.airbnb.ca/s/Montr%C3%A9al--Canada?price_min=24&price_max=25&neighborhoods%5B%5D=Cote-des-Neiges-Notre-Dame-de-Grace,45.505333317584565,-73.6260211293549,/rooms/6235634?s=04TZRKHC,30870695,6235634,FAUX,25,"Côte-des-Neiges–Notre-Dame-de-Grâce, Montréal",Chambre privée,Vrai lit,Appartement,2,1,4.0,Bedroom in a big apartment,11 commentaires,,
https://fr.airbnb.ca/s/Montr%C3%A9al--Canada?price_min=24&price_max=25&neighborhoods%5B%5D=Cote-des-Neiges-Notre-Dame-de-Grace,45.50878680910153,-73.62665015617888,/rooms/6832274?s=04TZRKHC,26736227,6832274,FAUX,25,"Côte-des-Neiges–Notre-Dame-de-Grâce, Montréal",Chambre privée,Vrai lit,Appartement,2,1,0,Grand chambre en colocation,1 commentaire,,
https://fr.airbnb.ca/s/Montr%C3%A9al--Canada?price_min=24&price_max=25&neighborhoods%5B%5D=Cote-des-Neiges-Notre-Dame-de-Grace,45.502191706470434,-73.62937412932511,/rooms/8790423?s=04TZRKHC,36707588,8790423,FAUX,25,"Côte-des-Neiges–Notre-Dame-de-Grâce, Montréal",Chambre privée,Vrai lit,Appartement,2,1,0,Home feeling;very cozy apt.,,,
https://fr.airbnb.ca/s/Montr%C3%A9al--Canada?price_min=24&price_max=25&neighborhoods%5B%5D=Cote-des-Neiges-Notre-Dame-de-Grace,45.5038181023307,-73.62554919847665,/rooms/6091086?s=04TZRKHC,31610598,6091086,FAUX,25,"Côte-des-Neiges–Notre-Dame-de-Grâce, Montréal",Chambre privée,Vrai lit,Appartement,1,1,0,Chambre avec Salle de Bain Privée,2 commentaires,,
https://fr.airbnb.ca/s/Montr%C3%A9al--Canada?price_min=24&price_max=25&neighborhoods%5B%5D=Cote-des-Neiges-Notre-Dame-de-Grace,45.504927191385555,-73.6173878229586,/rooms/7457524?s=04TZRKHC,39057817,7457524,FAUX,25,"Côte-des-Neiges–Notre-Dame-de-Grâce, Montréal",Chambre privée,Vrai lit,Appartement,1,1,0,2747 Boulevard Edouard-Montpetit,2 commentaires,,
https://fr.airbnb.ca/s/Montr%C3%A9al--Canada?price_min=24&price_max=25&neighborhoods%5B%5D=Cote-des-Neiges-Notre-Dame-de-Grace,45.50600837311515,-73.62462354543979,/rooms/8194689?s=04TZRKHC,43084191,8194689,FAUX,25,"Côte-des-Neiges–Notre-Dame-de-Grâce, Montréal",Chambre privée,Vrai lit,Appartement,1,1,0,Male Univshare UdeM McGil Concordia,,,
https://fr.airbnb.ca/s/Montr%C3%A9al--Canada?price_min=24&price_max=25&neighborhoods%5B%5D=Cote-des-Neiges-Notre-Dame-de-Grace,45.506363885935876,-73.6270961803199,/rooms/5824917?s=04TZRKHC,9944471,5824917,VRAI,25,"Côte-des-Neiges–Notre-Dame-de-Grâce, Montréal",Chambre privée,Vrai lit,Appartement,2,1,0,Chambre spacieuse pour 2 personnes,1 commentaire,,
https://fr.airbnb.ca/s/Montr%C3%A9al--Canada?price_min=24&price_max=25&neighborhoods%5B%5D=Cote-des-Neiges-Notre-Dame-de-Grace&page=2,45.50344456204835,-73.61781952314878,/rooms/7067423?s=WFAG0ruZ,37054368,7067423,FAUX,25,"Côte-des-Neiges–Notre-Dame-de-Grâce, Montréal",Chambre partagée,Vrai lit,Appartement,2,1,0,Comfortable futon in a living room,,,
https://fr.airbnb.ca/s/Montr%C3%A9al--Canada?price_min=25&price_max=26&neighborhoods%5B%5D=Cote-des-Neiges-Notre-Dame-de-Grace,45.50285646459523,-73.6178775715995,/rooms/5345030?s=7j30F7Al,22526651,5345030,FAUX,27,"Côte-des-Neiges–Notre-Dame-de-Grâce, Montréal",Chambre privée,,Appartement,3,1,0,Belle chambre spacieuse & lumineuse,1 commentaire,,
https://fr.airbnb.ca/s/Montr%C3%A9al--Canada?price_min=27&price_max=28&neighborhoods%5B%5D=Cote-des-Neiges-Notre-Dame-de-Grace,45.50476422540466,-73.62262582869384,/rooms/3360483?s=uJdeedjF,9598489,3360483,VRAI,29,"Côte-des-Neiges–Notre-Dame-de-Grâce, Montréal",Chambre privée,Vrai lit,Appartement,2,1,0,Belle chambre près de tout !,1 commentaire,,
https://fr.airbnb.ca/s/Montr%C3%A9al--Canada?price_min=28&price_max=29&neighborhoods%5B%5D=Cote-des-Neiges-Notre-Dame-de-Grace,45.512470790319966,-73.62746972867589,/rooms/3994382?s=b-UySxHm,7333467,3994382,FAUX,29,"Côte-des-Neiges–Notre-Dame-de-Grâce, Montréal",Chambre privée,Vrai lit,Appartement,2,1,5.0,Chambre lumineuse dans CDN,6 commentaires,,
https://fr.airbnb.ca/s/Montr%C3%A9al--Canada?price_min=29&price_max=30&neighborhoods%5B%5D=Cote-des-Neiges-Notre-Dame-de-Grace,45.50787069525721,-73.63084196999344,/rooms/3818468?s=jyokhl2a,2319,3818468,VRAI,31,"Côte-des-Neiges–Notre-Dame-de-Grâce, Montréal",Chambre privée,Vrai lit,Appartement,2,1,0,Univ of Montreal room 2,,,
https://fr.airbnb.ca/s/Montr%C3%A9al--Canada?price_min=29&price_max=30&neighborhoods%5B%5D=Cote-des-Neiges-Notre-Dame-de-Grace,45.50331229288853,-73.6190419106612,/rooms/7415952?s=jyokhl2a,23748680,7415952,FAUX,31,"Côte-des-Neiges–Notre-Dame-de-Grâce, Montréal",Chambre privée,Vrai lit,Appartement,2,1,0,Chambre de Charme à Montréal !,,,
https://fr.airbnb.ca/s/Montr%C3%A9al--Canada?price_min=29&price_max=30&neighborhoods%5B%5D=Cote-des-Neiges-Notre-Dame-de-Grace,45.50332243854801,-73.62722259181085,/rooms/9155886?s=jyokhl2a,24066793,9155886,FAUX,31,"Côte-des-Neiges–Notre-Dame-de-Grâce, Montréal",Chambre privée,Vrai lit,Appartement,1,1,0,Jolie chambre simple,,,
https://fr.airbnb.ca/s/Montr%C3%A9al--Canada?price_min=29&price_max=30&neighborhoods%5B%5D=Cote-des-Neiges-Notre-Dame-de-Grace,45.510941484117446,-73.62261500221258,/rooms/6125108?s=jyokhl2a,31778644,6125108,VRAI,31,"Côte-des-Neiges–Notre-Dame-de-Grâce, Montréal",Chambre privée,Vrai lit,Appartement,2,1,0,"Chambre à louer - HEC, Poly et UdM",,,
https://fr.airbnb.ca/s/Montr%C3%A9al--Canada?price_min=29&price_max=30&neighborhoods%5B%5D=Cote-des-Neiges-Notre-Dame-de-Grace,45.50585541591131,-73.62378793799876,/rooms/6359755?s=jyokhl2a,33077258,6359755,FAUX,31,"Côte-des-Neiges–Notre-Dame-de-Grâce, Montréal",Chambre privée,Vrai lit,Maison,1,1,0,Grande chambre- Cote des neiges,,,
https://fr.airbnb.ca/s/Montr%C3%A9al--Canada?price_min=29&price_max=30&neighborhoods%5B%5D=Cote-des-Neiges-Notre-Dame-de-Grace&page=2,45.50131031136132,-73.62002655640472,/rooms/8131362?s=pYrXpUb2,36442669,8131362,VRAI,31,"Côte-des-Neiges–Notre-Dame-de-Grâce, Montréal",Chambre privée,Vrai lit,Appartement,2,1,0,Chambre ds 4 1/2 propre confortable,2 commentaires,,
https://fr.airbnb.ca/s/Montr%C3%A9al--Canada?price_min=29&price_max=30&neighborhoods%5B%5D=Cote-des-Neiges-Notre-Dame-de-Grace&page=2,45.507742636531894,-73.62530572188179,/rooms/6926893?s=pYrXpUb2,32110307,6926893,FAUX,31,"Côte-des-Neiges–Notre-Dame-de-Grâce, Montréal",Chambre privée,Vrai lit,Appartement,2,1,5.0,Son chez soi à Montréal,3 commentaires,,
https://fr.airbnb.ca/s/Montr%C3%A9al--Canada?price_min=29&price_max=30&neighborhoods%5B%5D=Cote-des-Neiges-Notre-Dame-de-Grace&page=2,45.5081749956281,-73.63105423527203,/rooms/4517318?s=pYrXpUb2,23420491,4517318,FAUX,31,"Côte-des-Neiges–Notre-Dame-de-Grâce, Montréal",Chambre privée,Vrai lit,Appartement,2,1,0,Cozy and comfortable room,1 commentaire,,
https://fr.airbnb.ca/s/Montr%C3%A9al--Canada?price_min=29&price_max=30&neighborhoods%5B%5D=Cote-des-Neiges-Notre-Dame-de-Grace&page=2,45.510269397687885,-73.62970469488381,/rooms/6078829?s=pYrXpUb2,31553673,6078829,FAUX,31,"Côte-des-Neiges–Notre-Dame-de-Grâce, Montréal",Chambre privée,Vrai lit,Appartement,2,1,0,petite chambre,,,
https://fr.airbnb.ca/s/Montr%C3%A9al--Canada?price_min=29&price_max=30&neighborhoods%5B%5D=Cote-des-Neiges-Notre-Dame-de-Grace&page=2,45.50419885011219,-73.62234713106635,/rooms/6055648?s=pYrXpUb2,17462821,6055648,FAUX,31,"Côte-des-Neiges–Notre-Dame-de-Grâce, Montréal",Chambre privée,Vrai lit,Maison,1,1,0,Cosy room in a quiet neighborhood,,,
https://fr.airbnb.ca/s/Montr%C3%A9al--Canada?price_min=29&price_max=30&neighborhoods%5B%5D=Cote-des-Neiges-Notre-Dame-de-Grace&page=3,45.50646472044372,-73.62056030715357,/rooms/4516620?s=Eia__jW,8637161,4516620,FAUX,31,"Côte-des-Neiges–Notre-Dame-de-Grâce, Montréal",Chambre partagée,,Appartement,3,1,0,Près Côte des neiges et UDEM,,,
https://fr.airbnb.ca/s/Montr%C3%A9al--Canada?price_min=29&price_max=30&neighborhoods%5B%5D=Cote-des-Neiges-Notre-Dame-de-Grace&page=3,45.5053212424451,-73.62121970087058,/rooms/7025855?s=Eia__jW,19683564,7025855,FAUX,31,"Côte-des-Neiges–Notre-Dame-de-Grâce, Montréal",Chambre privée,Vrai lit,Maison,2,1,0,Chambre confortable devant HEC,,,
https://fr.airbnb.ca/s/Montr%C3%A9al--Canada?price_min=31&price_max=32&neighborhoods%5B%5D=Cote-des-Neiges-Notre-Dame-de-Grace&page=2,45.510402078035504,-73.61228184869951,/rooms/3146434?s=Mq-TkUpY,15973631,3146434,FAUX,32,"Côte-des-Neiges–Notre-Dame-de-Grâce, Montréal",Chambre privée,Futon,Appartement,2,1,0,Chambre privée,,,
https://fr.airbnb.ca/s/Montr%C3%A9al--Canada?price_min=33&price_max=34&neighborhoods%5B%5D=Cote-des-Neiges-Notre-Dame-de-Grace,45.50480824829513,-73.62300174212315,/rooms/7343873?s=D6PUXExI,38472971,7343873,FAUX,34,"Côte-des-Neiges–Notre-Dame-de-Grâce, Montréal",Chambre privée,,Appartement,2,1,0,Chambre accueillante grand 4 1/2,1 commentaire,,
https://fr.airbnb.ca/s/Montr%C3%A9al--Canada?price_min=33&price_max=34&neighborhoods%5B%5D=Cote-des-Neiges-Notre-Dame-de-Grace,45.510937805764165,-73.6229649392064,/rooms/2174773?s=D6PUXExI,10961792,2174773,VRAI,34,"Côte-des-Neiges–Notre-Dame-de-Grâce, Montréal",Chambre privée,Vrai lit,Appartement,2,1,5.0,Quiet bright room in Montreal,14 commentaires,,
https://fr.airbnb.ca/s/Montr%C3%A9al--Canada?price_min=33&price_max=34&neighborhoods%5B%5D=Cote-des-Neiges-Notre-Dame-de-Grace,45.51359989466526,-73.63526535541256,/rooms/8483071?s=D6PUXExI,29934284,8483071,FAUX,34,"Côte-des-Neiges–Notre-Dame-de-Grâce, Montréal",Chambre privée,Vrai lit,Appartement,1,1,0,chambre spacieuse et réservé,,,
https://fr.airbnb.ca/s/Montr%C3%A9al--Canada?price_min=33&price_max=34&neighborhoods%5B%5D=Cote-des-Neiges-Notre-Dame-de-Grace&page=2,45.50847551031599,-73.62828824146871,/rooms/5705843?s=EHyr5AYd,7333467,5705843,FAUX,35,"Côte-des-Neiges–Notre-Dame-de-Grâce, Montréal",Chambre privée,Vrai lit,Appartement,2,1,0,Grande chambre lumineuse dans CDN,,,
https://fr.airbnb.ca/s/Montr%C3%A9al--Canada?price_min=35&price_max=36&neighborhoods%5B%5D=Cote-des-Neiges-Notre-Dame-de-Grace,45.50052974218706,-73.6228698928611,/rooms/5131802?s=-gKhaiY7,26529204,5131802,VRAI,37,"Côte-des-Neiges–Notre-Dame-de-Grâce, Montréal",Chambre privée,Vrai lit,Appartement,2,1,0,Appart étudiant Côte-des-Neiges,1 commentaire,,
https://fr.airbnb.ca/s/Montr%C3%A9al--Canada?price_min=37&price_max=38&neighborhoods%5B%5D=Cote-des-Neiges-Notre-Dame-de-Grace,45.51230002203326,-73.62188686326238,/rooms/3971849?s=uSnx1BMX,5269420,3971849,FAUX,38,"Côte-des-Neiges–Notre-Dame-de-Grâce, Montréal",Chambre privée,Vrai lit,Appartement,2,1,4.0,"Spacious, sunny, apartment",23 commentaires,,
https://fr.airbnb.ca/s/Montr%C3%A9al--Canada?price_min=37&price_max=38&neighborhoods%5B%5D=Cote-des-Neiges-Notre-Dame-de-Grace,45.507331237588126,-73.6183565225998,/rooms/6221280?s=uSnx1BMX,14229304,6221280,FAUX,38,"Côte-des-Neiges–Notre-Dame-de-Grâce, Montréal",Chambre privée,Vrai lit,Appartement,1,1,4.0,Chambre privée dans un 7/2,3 commentaires,,
https://fr.airbnb.ca/s/Montr%C3%A9al--Canada?price_min=37&price_max=38&neighborhoods%5B%5D=Cote-des-Neiges-Notre-Dame-de-Grace,45.507036710242225,-73.62198301815653,/rooms/4009920?s=uSnx1BMX,18831525,4009920,FAUX,38,"Côte-des-Neiges–Notre-Dame-de-Grâce, Montréal",Chambre privée,Vrai lit,Appartement,2,1,0,Chambre d'amis/,,,
https://fr.airbnb.ca/s/Montr%C3%A9al--Canada?price_min=39&price_max=40&neighborhoods%5B%5D=Cote-des-Neiges-Notre-Dame-de-Grace,45.500682866601764,-73.6267951735055,/rooms/9314720?s=PWvZsFNw,14980630,9314720,FAUX,40,"Côte-des-Neiges–Notre-Dame-de-Grâce, Montréal",Logement entier,Vrai lit,Appartement,2,1,0,Spacious Apartment in Midtown,,,
https://fr.airbnb.ca/s/Montr%C3%A9al--Canada?price_min=39&price_max=40&neighborhoods%5B%5D=Cote-des-Neiges-Notre-Dame-de-Grace,45.505511686937496,-73.61724344468487,/rooms/3958847?s=PWvZsFNw,11462472,3958847,FAUX,40,"Côte-des-Neiges–Notre-Dame-de-Grâce, Montréal",Chambre privée,Vrai lit,Appartement,2,1,0,Une chambre à côté de HEC,,,
https://fr.airbnb.ca/s/Montr%C3%A9al--Canada?price_min=39&price_max=40&neighborhoods%5B%5D=Cote-des-Neiges-Notre-Dame-de-Grace,45.50074481963484,-73.62291154653246,/rooms/9047796?s=PWvZsFNw,31813287,9047796,FAUX,40,"Côte-des-Neiges–Notre-Dame-de-Grâce, Montréal",Chambre privée,Vrai lit,Appartement,3,1,0,Large bright room !,,,
https://fr.airbnb.ca/s/Montr%C3%A9al--Canada?price_min=39&price_max=40&neighborhoods%5B%5D=Cote-des-Neiges-Notre-Dame-de-Grace,45.514453912191854,-73.63173381116911,/rooms/6535065?s=PWvZsFNw,21678964,6535065,FAUX,40,"Côte-des-Neiges–Notre-Dame-de-Grâce, Montréal",Chambre privée,,Maison,2,1,0,1 room in home w/garden Montreal,,,
https://fr.airbnb.ca/s/Montr%C3%A9al--Canada?price_min=39&price_max=40&neighborhoods%5B%5D=Cote-des-Neiges-Notre-Dame-de-Grace&page=2,45.5096344840987,-73.62868064213595,/rooms/472460?s=JEWgBeAl,2343101,472460,FAUX,40,"Côte-des-Neiges–Notre-Dame-de-Grâce, Montréal",Logement entier,,Appartement,4,2,0,"Big, sunny apartment in Outremont",2 commentaires,,
https://fr.airbnb.ca/s/Montr%C3%A9al--Canada?price_min=39&price_max=40&neighborhoods%5B%5D=Cote-des-Neiges-Notre-Dame-de-Grace&page=2,45.50604224308868,-73.62632428953387,/rooms/8012011?s=JEWgBeAl,12675776,8012011,FAUX,40,"Côte-des-Neiges–Notre-Dame-de-Grâce, Montréal",Chambre privée,Vrai lit,Appartement,2,1,0,Bienvenue chez nous,1 commentaire,,
https://fr.airbnb.ca/s/Montr%C3%A9al--Canada?price_min=39&price_max=40&neighborhoods%5B%5D=Cote-des-Neiges-Notre-Dame-de-Grace&page=2,45.49771963431313,-73.61963527189732,/rooms/8371681?s=JEWgBeAl,37807481,8371681,FAUX,40,"Côte-des-Neiges–Notre-Dame-de-Grâce, Montréal",Logement entier,Vrai lit,Appartement,2,1,0,Appartement fonctionnel et agréable,1 commentaire,,
https://fr.airbnb.ca/s/Montr%C3%A9al--Canada?price_min=39&price_max=40&neighborhoods%5B%5D=Cote-des-Neiges-Notre-Dame-de-Grace&page=2,45.505654903891184,-73.62786001106585,/rooms/5979013?s=JEWgBeAl,9944471,5979013,FAUX,40,"Côte-des-Neiges–Notre-Dame-de-Grâce, Montréal",Logement entier,,Appartement,6,2,0,Appartement 2 chambres spacieux,2 commentaires,,
https://fr.airbnb.ca/s/Montr%C3%A9al--Canada?price_min=39&price_max=40&neighborhoods%5B%5D=Cote-des-Neiges-Notre-Dame-de-Grace&page=2,45.507538048956754,-73.62554617376541,/rooms/2925382?s=JEWgBeAl,6918839,2925382,FAUX,40,"Côte-des-Neiges–Notre-Dame-de-Grâce, Montréal",Chambre privée,,Appartement,2,1,5/4/2015,Belle chambre bleu a louer,4 commentaires,,
https://fr.airbnb.ca/s/Montr%C3%A9al--Canada?price_min=39&price_max=40&neighborhoods%5B%5D=Cote-des-Neiges-Notre-Dame-de-Grace&page=3,45.50538310449231,-73.62695332396899,/rooms/6271994?s=FRQo8Cyn,31658802,6271994,FAUX,40,"Côte-des-Neiges–Notre-Dame-de-Grâce, Montréal",Chambre privée,Vrai lit,Appartement,2,1,0,Jolie chambre dans appartement,,,
https://fr.airbnb.ca/s/Montr%C3%A9al--Canada?price_min=39&price_max=40&neighborhoods%5B%5D=Cote-des-Neiges-Notre-Dame-de-Grace&page=3,45.50273154438456,-73.6209028731101,/rooms/8514760?s=FRQo8Cyn,11538238,8514760,FAUX,40,"Côte-des-Neiges–Notre-Dame-de-Grâce, Montréal",Logement entier,Vrai lit,Appartement,2,0,0,Studio cosi sur Edouard Montpetit,1 commentaire,,
https://fr.airbnb.ca/s/Montr%C3%A9al--Canada?price_min=43&price_max=44&neighborhoods%5B%5D=Cote-des-Neiges-Notre-Dame-de-Grace,45.507655009480885,-73.6236848132418,/rooms/6848120?s=52vrwT7c,35884221,6848120,FAUX,44,"Côte-des-Neiges–Notre-Dame-de-Grâce, Montréal",Logement entier,Vrai lit,Appartement,2,1,0,Studio près de l'UdeM,,,
https://fr.airbnb.ca/s/Montr%C3%A9al--Canada?price_min=44&price_max=45&neighborhoods%5B%5D=Cote-des-Neiges-Notre-Dame-de-Grace,45.504949469415386,-73.6257429228239,/rooms/4210331?s=FH8bLTMS,65965,4210331,FAUX,45,"Côte-des-Neiges–Notre-Dame-de-Grâce, Montréal",Chambre privée,Vrai lit,Appartement,2,1,0,"chambre près du mont royal,montréal",,,
https://fr.airbnb.ca/s/Montr%C3%A9al--Canada?price_min=44&price_max=45&neighborhoods%5B%5D=Cote-des-Neiges-Notre-Dame-de-Grace&page=2,45.50861628860294,-73.62398966102594,/rooms/5757640?s=0ZFLPqYS,29720990,5757640,FAUX,45,"Côte-des-Neiges–Notre-Dame-de-Grâce, Montréal",Chambre privée,Vrai lit,Loft,2,1,0,Chambre Cosy Near downtown,,,
https://fr.airbnb.ca/s/Montr%C3%A9al--Canada?price_min=44&price_max=45&neighborhoods%5B%5D=Cote-des-Neiges-Notre-Dame-de-Grace&page=2,45.51200070164952,-73.62292391113871,/rooms/9239218?s=0ZFLPqYS,48020564,9239218,FAUX,45,"Côte-des-Neiges–Notre-Dame-de-Grâce, Montréal",Logement entier,Vrai lit,Appartement,1,1,0,Warm and Cozy app,,,
https://fr.airbnb.ca/s/Montr%C3%A9al--Canada?price_min=44&price_max=45&neighborhoods%5B%5D=Cote-des-Neiges-Notre-Dame-de-Grace&page=2,45.50934299647681,-73.62583012702213,/rooms/6297939?s=0ZFLPqYS,31591329,6297939,FAUX,45,"Côte-des-Neiges–Notre-Dame-de-Grâce, Montréal",Chambre privée,,Appartement,2,1,0,Spacious Room,1 commentaire,,
https://fr.airbnb.ca/s/Montr%C3%A9al--Canada?price_min=47&price_max=48&neighborhoods%5B%5D=Cote-des-Neiges-Notre-Dame-de-Grace,45.50296217470256,-73.61841944961621,/rooms/7950105?s=-EkV0qIH,8338480,7950105,FAUX,48,"Côte-des-Neiges–Notre-Dame-de-Grâce, Montréal",Logement entier,Vrai lit,Appartement,2,1,0,"Furnished Appartemnt @HEC, UdeM",,,
https://fr.airbnb.ca/s/Montr%C3%A9al--Canada?price_min=48&price_max=49&neighborhoods%5B%5D=Cote-des-Neiges-Notre-Dame-de-Grace,45.50296187738967,-73.62793068291346,/rooms/1356917?s=1BrWU39f,7366317,1356917,VRAI,49,"Côte-des-Neiges–Notre-Dame-de-Grâce, Montréal",Chambre privée,Vrai lit,Appartement,2,1,5/4/2015,Private room in furnished 1 bed apt,43 commentaires,,
https://fr.airbnb.ca/s/Montr%C3%A9al--Canada?price_min=48&price_max=49&neighborhoods%5B%5D=Cote-des-Neiges-Notre-Dame-de-Grace,45.499490393979066,-73.61797563677827,/rooms/8923934?s=1BrWU39f,5163594,8923934,FAUX,49,"Côte-des-Neiges–Notre-Dame-de-Grâce, Montréal",Chambre privée,Vrai lit,Appartement,2,1,0,gde chambre près de l'UdeMontréal,,,
https://fr.airbnb.ca/s/Montr%C3%A9al--Canada?price_min=49&price_max=50&neighborhoods%5B%5D=Cote-des-Neiges-Notre-Dame-de-Grace,45.513126154344384,-73.62917420909733,/rooms/6223268?s=fcoYRLur,32273908,6223268,VRAI,50,"Côte-des-Neiges–Notre-Dame-de-Grâce, Montréal",Logement entier,Vrai lit,Loft,2,0,5/4/2015,2 1/2 tout comprit,7 commentaires,,
https://fr.airbnb.ca/s/Montr%C3%A9al--Canada?price_min=49&price_max=50&neighborhoods%5B%5D=Cote-des-Neiges-Notre-Dame-de-Grace,45.50288770182442,-73.61779277972617,/rooms/6515815?s=fcoYRLur,34069053,6515815,FAUX,50,"Côte-des-Neiges–Notre-Dame-de-Grâce, Montréal",Logement entier,Vrai lit,Appartement,4,1,0,Appartement sur Edouard Montpetit,1 commentaire,,
https://fr.airbnb.ca/s/Montr%C3%A9al--Canada?price_min=49&price_max=50&neighborhoods%5B%5D=Cote-des-Neiges-Notre-Dame-de-Grace&page=2,45.50423670630272,-73.6267512158488,/rooms/7146757?s=71ZCDNuU,37426919,7146757,FAUX,50,"Côte-des-Neiges–Notre-Dame-de-Grâce, Montréal",Chambre privée,Vrai lit,Appartement,2,1,0,"Chambre 11'x13', LUMINEUSE, CALME",,,
https://fr.airbnb.ca/s/Montr%C3%A9al--Canada?price_min=49&price_max=50&neighborhoods%5B%5D=Cote-des-Neiges-Notre-Dame-de-Grace&page=2,45.50958093302605,-73.62859699083381,/rooms/4492809?s=71ZCDNuU,2830157,4492809,FAUX,50,"Côte-des-Neiges–Notre-Dame-de-Grâce, Montréal",Chambre privée,Vrai lit,Appartement,2,1,0,Mad Men,,,
https://fr.airbnb.ca/s/Montr%C3%A9al--Canada?price_min=49&price_max=50&neighborhoods%5B%5D=Cote-des-Neiges-Notre-Dame-de-Grace&page=3,45.50175180149043,-73.6216795447323,/rooms/7116235?s=Xh8JAO5x,34058026,7116235,FAUX,50,"Côte-des-Neiges–Notre-Dame-de-Grâce, Montréal",Chambre privée,Vrai lit,Appartement,2,1,0,Université de Montréal area,1 commentaire,,
https://fr.airbnb.ca/s/Montr%C3%A9al--Canada?price_min=51&price_max=52&neighborhoods%5B%5D=Cote-des-Neiges-Notre-Dame-de-Grace,45.50077992694516,-73.65487494916133,/rooms/7140901?s=7lvHvNb9,20468657,7140901,VRAI,52,"Côte-des-Neiges–Notre-Dame-de-Grâce, Montréal",Logement entier,,Appartement,4,1,5/4/2015,Modern Condo - 2-4 people- Montreal,5 commentaires,,
https://fr.airbnb.ca/s/Montr%C3%A9al--Canada?price_min=52&price_max=53&neighborhoods%5B%5D=Cote-des-Neiges-Notre-Dame-de-Grace,45.51349300789437,-73.62292117263824,/rooms/6291480?s=5XV4sOU1,32710860,6291480,FAUX,53,"Côte-des-Neiges–Notre-Dame-de-Grâce, Montréal",Chambre privée,Vrai lit,Appartement,2,1,0,Chambre accueillante UDEM-Outremont,1 commentaire,,
https://fr.airbnb.ca/s/Montr%C3%A9al--Canada?price_min=52&price_max=53&neighborhoods%5B%5D=Cote-des-Neiges-Notre-Dame-de-Grace,45.49741194130953,-73.65334544292979,/rooms/7343422?s=5XV4sOU1,38470785,7343422,FAUX,53,"Côte-des-Neiges–Notre-Dame-de-Grâce, Montréal",Chambre privée,Vrai lit,Appartement,3,1,0,"Room In Penthouse Apartment, MTL",2 commentaires,,
https://fr.airbnb.ca/s/Montr%C3%A9al--Canada?price_min=55&price_max=56&neighborhoods%5B%5D=Cote-des-Neiges-Notre-Dame-de-Grace,45.50050430577447,-73.6200709937102,/rooms/8036552?s=iUkIryth,106030,8036552,FAUX,56,"Côte-des-Neiges–Notre-Dame-de-Grâce, Montréal",Logement entier,Vrai lit,Appartement,4,1,0,Studio Zen & Nickel (UdeM/HEC/Poly),2 commentaires,,
https://fr.airbnb.ca/s/Montr%C3%A9al--Canada?price_min=56&price_max=57&neighborhoods%5B%5D=Cote-des-Neiges-Notre-Dame-de-Grace,45.49788367826727,-73.65411915775273,/rooms/410098?s=bgRrfyqk,2041553,410098,FAUX,59,"Côte-des-Neiges–Notre-Dame-de-Grâce, Montréal",Logement entier,,Appartement,4,1,5/4/2015,Convenient 1-bedroom @ Namur Metro,4 commentaires,,
https://fr.airbnb.ca/s/Montr%C3%A9al--Canada?price_min=57&price_max=58&neighborhoods%5B%5D=Cote-des-Neiges-Notre-Dame-de-Grace,45.50155247047986,-73.62181010745317,/rooms/7665336?s=r3ZtCWLT,40240597,7665336,FAUX,58,"Côte-des-Neiges–Notre-Dame-de-Grâce, Montréal",Logement entier,,Appartement,4,1,4.0,Bel appart au coeur de l'UDM + PS4,3 commentaires,,
https://fr.airbnb.ca/s/Montr%C3%A9al--Canada?price_min=59&price_max=60&neighborhoods%5B%5D=Cote-des-Neiges-Notre-Dame-de-Grace,45.49759989881683,-73.65416644923108,/rooms/9164952?s=fhaKkCiZ,2041553,9164952,FAUX,61,"Côte-des-Neiges–Notre-Dame-de-Grâce, Montréal",Logement entier,,Appartement,3,1,0,Charming one-bedroom @ Namur Metro,,,
https://fr.airbnb.ca/s/Montr%C3%A9al--Canada?price_min=59&price_max=60&neighborhoods%5B%5D=Cote-des-Neiges-Notre-Dame-de-Grace,45.50673481198996,-73.62177997039288,/rooms/8830448?s=fhaKkCiZ,46250763,8830448,VRAI,60,"Côte-des-Neiges–Notre-Dame-de-Grâce, Montréal",Logement entier,Vrai lit,Appartement,4,1,0,What you had in mind,,,
https://fr.airbnb.ca/s/Montr%C3%A9al--Canada?price_min=59&price_max=60&neighborhoods%5B%5D=Cote-des-Neiges-Notre-Dame-de-Grace,45.50792808465442,-73.6289606941111,/rooms/52932?s=fhaKkCiZ,2319,52932,VRAI,60,"Côte-des-Neiges–Notre-Dame-de-Grâce, Montréal",Logement entier,,Appartement,4,2,4.0,Cote des Neiges Private 2 B/R,27 commentaires,,
https://fr.airbnb.ca/s/Montr%C3%A9al--Canada?price_min=59&price_max=60&neighborhoods%5B%5D=Cote-des-Neiges-Notre-Dame-de-Grace,45.49770663609438,-73.65614189947699,/rooms/547921?s=fhaKkCiZ,2041553,547921,FAUX,61,"Côte-des-Neiges–Notre-Dame-de-Grâce, Montréal",Logement entier,,Appartement,2,1,4.0,Nice 1 bedroom apt @ Namur metro,6 commentaires,,
https://fr.airbnb.ca/s/Montr%C3%A9al--Canada?price_min=59&price_max=60&neighborhoods%5B%5D=Cote-des-Neiges-Notre-Dame-de-Grace&page=2,45.509560715997935,-73.63058374483452,/rooms/267673?s=scImQdi5,2319,267673,VRAI,60,"Côte-des-Neiges–Notre-Dame-de-Grâce, Montréal",Logement entier,,Appartement,4,2,5/3/2015,Montreal University student rooms,16 commentaires,,
https://fr.airbnb.ca/s/Montr%C3%A9al--Canada?price_min=59&price_max=60&neighborhoods%5B%5D=Cote-des-Neiges-Notre-Dame-de-Grace&page=2,45.51113886306569,-73.62314927305106,/rooms/2917292?s=scImQdi5,14898055,2917292,FAUX,60,"Côte-des-Neiges–Notre-Dame-de-Grâce, Montréal",Chambre privée,,Appartement,1,1,0,Room in Outremont,,,
https://fr.airbnb.ca/s/Montr%C3%A9al--Canada?price_min=64&price_max=65&neighborhoods%5B%5D=Cote-des-Neiges-Notre-Dame-de-Grace,45.506186002682945,-73.62122689309096,/rooms/1009677?s=nhGILoXw,2132570,1009677,FAUX,65,"Côte-des-Neiges–Notre-Dame-de-Grâce, Montréal",Logement entier,,Appartement,4,2,5/4/2015,Apartment of your dreams at UdeM!,10 commentaires,,
